[
  {
    "name": " St Jude's Huruma Community Health Services",
    "phoneNumber": "0712 291894",
    "latitude": "-1.26174",
    "longitude": "36.87765",
    "time": "7 a.m.-7 p.m."
  },
  {
    "name": "3Kl Maternity & Nursing Home",
    "phoneNumber": "0719 773574",
    "latitude": "-1.3757",
    "longitude": "36.72277",
    "time": "8 a.m.-8 p.m."
  },
  {
    "name": "8Th Street Clinic",
    "phoneNumber": "0796 456745",
    "latitude": "-1.41187",
    "longitude": "36.50854",
    "time": "Open 24 hours"
  },
  {
    "name": "AAR Adams Health Centre",
    "phoneNumber": "0734 233678",
    "latitude": "-1.30047",
    "longitude": "36.73162",
    "time": "7 a.m.-7 p.m."
  },
  {
    "name": "AAR City Centre Clinic",
    "phoneNumber": "0744 677771",
    "latitude": "-1.28443",
    "longitude": "36.82135",
    "time": "7 a.m.-7 p.m."
  },
  {
    "name": "AAR Clinic Sarit Centre (Westlands)",
    "phoneNumber": "0791 677730",
    "latitude": "-1.2617",
    "longitude": "36.80211",
    "time": "Open 24 hours"
  },
  {
    "name": "AAR Eldoret",
    "phoneNumber": "0716 374912",
    "latitude": "0.51676",
    "longitude": "35.27422",
    "time": "7 a.m.-7 p.m."
  },
  {
    "name": "AAR Health Care-Kisumu",
    "phoneNumber": "0764 446691",
    "latitude": "-0.10465",
    "longitude": "34.75328",
    "time": "7 a.m.-7 p.m."
  },
  {
    "name": "AAR Healthcare Limited (Karen)",
    "phoneNumber": "0787 319111",
    "latitude": "-1.3408",
    "longitude": "36.75777",
    "time": "7 a.m.-7 p.m."
  },
  {
    "name": "AAR Kariobangi Clinic",
    "phoneNumber": "0799 766583",
    "latitude": "-1.23625",
    "longitude": "36.96017",
    "time": "7 a.m.-8 p.m."
  },
  {
    "name": "AAR Medical Services (Docks)",
    "phoneNumber": "0715 292485",
    "latitude": "-4.06012",
    "longitude": "39.66429",
    "time": "7 a.m.-9 p.m."
  },
  {
    "name": "AAR Mountain mall",
    "phoneNumber": "0740 290908",
    "latitude": "-1.23283",
    "longitude": "36.87403",
    "time": "Open 24 hours"
  },
  {
    "name": "AAR Outpatient Center Donholm",
    "phoneNumber": "0752 123989",
    "latitude": "-1.18072",
    "longitude": "36.53169",
    "time": "8 a.m.-9 p.m."
  },
  {
    "name": "AAR Thika out Patient Centre",
    "phoneNumber": "0777 769442",
    "latitude": "-1.03863",
    "longitude": "37.0775",
    "time": "8 a.m.-9 p.m."
  },
  {
    "name": "AAR Thika Road Clinic",
    "phoneNumber": "0735 466273",
    "latitude": "-1.2148",
    "longitude": "36.8665",
    "time": "7 a.m.-9 p.m."
  },
  {
    "name": "Abba Medical Clinic",
    "phoneNumber": "0767 226973",
    "latitude": "-0.49793",
    "longitude": "36.99488",
    "time": "7 a.m.-9 p.m."
  },
  {
    "name": "Abby Clinic",
    "phoneNumber": "0754 165288",
    "latitude": "-1.26379",
    "longitude": "36.74795",
    "time": "Open 24 hours"
  },
  {
    "name": "Abby Health Services",
    "phoneNumber": "0738 123240",
    "latitude": "-1.03669",
    "longitude": "38.0094",
    "time": "7 a.m.-8 p.m."
  },
  {
    "name": "Abdallah Dental Clinic (Barclays Plaza-Nairobi)",
    "phoneNumber": "0723 462414",
    "latitude": "-1.28474",
    "longitude": "36.81815",
    "time": "7 a.m.-7 p.m."
  },
  {
    "name": "Aberdare Health Services",
    "phoneNumber": "0733 775319",
    "latitude": "-0.765141",
    "longitude": "36.8247",
    "time": "8 a.m.-9 p.m."
  },
  {
    "name": "Aberdare Medical & Surgical Clinic",
    "phoneNumber": "0788 490179",
    "latitude": "-0.558127",
    "longitude": "36.9264",
    "time": "Open 24 hours"
  },
  {
    "name": "Able Medical Clinic",
    "phoneNumber": "0727 533533",
    "latitude": "0.22351",
    "longitude": "34.81428",
    "time": "8 a.m.-9 p.m."
  },
  {
    "name": "Abra Health Services",
    "phoneNumber": "0797 935336",
    "latitude": "-1.2907",
    "longitude": "36.90275",
    "time": "7 a.m.-9 p.m."
  },
  {
    "name": "Abraham Memorial Nursing Home (Westlands)",
    "phoneNumber": "0722 660854",
    "latitude": "-1.26735",
    "longitude": "36.75793",
    "time": "7 a.m.-8 p.m."
  },
  {
    "name": "Abrahams Clinic",
    "phoneNumber": "0710 346923",
    "latitude": "-0.40098",
    "longitude": "37.2593",
    "time": "7 a.m.-8 p.m."
  },
  {
    "name": "Abundant Life Clinic",
    "phoneNumber": "0748 909953",
    "latitude": "-0.122486",
    "longitude": "34.752132",
    "time": "8 a.m.-8 p.m."
  },
  {
    "name": "Acacia Clinic (Kilimani)",
    "phoneNumber": "0718 547177",
    "latitude": "-1.26418",
    "longitude": "36.79893",
    "time": "7 a.m.-8 p.m."
  },
  {
    "name": "Acacia Medical Centre (Nairobi)",
    "phoneNumber": "0712 497850",
    "latitude": "-1.28443",
    "longitude": "36.82113",
    "time": "7 a.m.-8 p.m."
  },
  {
    "name": "Acacia Medicare Centre",
    "phoneNumber": "0763 847785",
    "latitude": "-1.361581",
    "longitude": "36.65714",
    "time": "8 a.m.-8 p.m."
  },
  {
    "name": "Access Afya",
    "phoneNumber": "0711 884595",
    "latitude": "-1.31085",
    "longitude": "36.8427",
    "time": "8 a.m.-8 p.m."
  },
  {
    "name": "Access Afya Medical Centre Viwandani",
    "phoneNumber": "0798 911919",
    "latitude": "-1.30936",
    "longitude": "36.87844",
    "time": "8 a.m.-9 p.m."
  },
  {
    "name": "Ace Africa (k) Wellness Centre",
    "phoneNumber": "0741 791271",
    "latitude": "0.2456",
    "longitude": "34.256",
    "time": "7 a.m.-7 p.m."
  },
  {
    "name": "ACK Nyandarua Medical Clinic",
    "phoneNumber": "0729 127116",
    "latitude": "0.03461",
    "longitude": "36.37201",
    "time": "7 a.m.-8 p.m."
  },
  {
    "name": "ACK Tumaini Medical Clinic",
    "phoneNumber": "0712 684515",
    "latitude": "-0.42082",
    "longitude": "36.95441",
    "time": "7 a.m.-9 p.m."
  },
  {
    "name": "Acode Medical Clinic Maungu",
    "phoneNumber": "0769 109359",
    "latitude": "-3.55733",
    "longitude": "38.75037",
    "time": "8 a.m.-8 p.m."
  },
  {
    "name": "Aculaser Institute",
    "phoneNumber": "0761 874619",
    "latitude": "-1.26237",
    "longitude": "36.82461",
    "time": "Open 24 hours"
  },
  {
    "name": "Adoma Medical Clinic",
    "phoneNumber": "0759 262763",
    "latitude": "-0.91634",
    "longitude": "34.52189",
    "time": "7 a.m.-7 p.m."
  },
  {
    "name": "Advent Med & Dentist Care Centre",
    "phoneNumber": "0726 654122",
    "latitude": "-0.28631",
    "longitude": "36.06565",
    "time": "7 a.m.-8 p.m."
  },
  {
    "name": "Adventist Centre For Care and Support (Kilimani)",
    "phoneNumber": "0733 133887",
    "latitude": "-1.28899",
    "longitude": "36.80751",
    "time": "7 a.m.-8 p.m."
  },
  {
    "name": "Afraha Maternity and Nursing Home",
    "phoneNumber": "0726 327616",
    "latitude": "-0.29746",
    "longitude": "36.07421",
    "time": "8 a.m.-8 p.m."
  },
  {
    "name": "African Divine Church-Org",
    "phoneNumber": "0761 136029",
    "latitude": "-1.24541",
    "longitude": "36.80472",
    "time": "8 a.m.-8 p.m."
  },
  {
    "name": "Afwan Medical Centre",
    "phoneNumber": "0744 244550",
    "latitude": "-1.28321",
    "longitude": "36.8405",
    "time": "7 a.m.-8 p.m."
  },
  {
    "name": "Afwene Clinic",
    "phoneNumber": "0724 170492",
    "latitude": "-0.43407",
    "longitude": "39.65269",
    "time": "Open 24 hours"
  },
  {
    "name": "Afya Bora Clinic (Meru South)",
    "phoneNumber": "0766 899839",
    "latitude": "-0.33367",
    "longitude": "37.64403",
    "time": "7 a.m.-8 p.m."
  },
  {
    "name": "Afya Bora Clinic (Mutomo)",
    "phoneNumber": "0719 784043",
    "latitude": "-1.50099",
    "longitude": "38.12479",
    "time": "7 a.m.-9 p.m."
  },
  {
    "name": "Afya Bora Clinic (Mwea)",
    "phoneNumber": "0756 196136",
    "latitude": "-0.681054",
    "longitude": "37.2904",
    "time": "8 a.m.-9 p.m."
  },
  {
    "name": "Afya Bora Clinic Karia",
    "phoneNumber": "0717 515340",
    "latitude": "-1.10056",
    "longitude": "36.81912",
    "time": "7 a.m.-8 p.m."
  },
  {
    "name": "Afya Bora Health Care",
    "phoneNumber": "0749 566324",
    "latitude": "-1.26779",
    "longitude": "36.75751",
    "time": "7 a.m.-9 p.m."
  },
  {
    "name": "Afya Bora Health Clinic",
    "phoneNumber": "0790 439592",
    "latitude": "-0.13267",
    "longitude": "36.37921",
    "time": "7 a.m.-8 p.m."
  },
  {
    "name": "Afya Bora Mc",
    "phoneNumber": "0719 713724",
    "latitude": "1.01331",
    "longitude": "34.98641",
    "time": "7 a.m.-7 p.m."
  },
  {
    "name": "Afya Bora Medical Clinic",
    "phoneNumber": "0796 241513",
    "latitude": "-0.34365",
    "longitude": "36.05765",
    "time": "Open 24 hours"
  },
  {
    "name": "Afya Bora Medical Clinic (CFW Clinic Gichugu)",
    "phoneNumber": "0724 739517",
    "latitude": "-0.524658",
    "longitude": "37.41892",
    "time": "7 a.m.-8 p.m."
  },
  {
    "name": "Afya Bora Medical Clinic (Malindi)",
    "phoneNumber": "0729 636185",
    "latitude": "-2.86282",
    "longitude": "40.1482",
    "time": "8 a.m.-9 p.m."
  },
  {
    "name": "Afya Bora Medical Clinic (Mirangine)",
    "phoneNumber": "0731 522198",
    "latitude": "-0.176",
    "longitude": "36.24414",
    "time": "8 a.m.-9 p.m."
  },
  {
    "name": "Afya Bora Medical Clinic (Muchagara)",
    "phoneNumber": "0764 441005",
    "latitude": "-0.46852",
    "longitude": "37.36062",
    "time": "8 a.m.-9 p.m."
  },
  {
    "name": "Afya Bora Medical Clinic (Nyeri South)",
    "phoneNumber": "0797 524386",
    "latitude": "-0.43574",
    "longitude": "36.96286",
    "time": "8 a.m.-8 p.m."
  },
  {
    "name": "Afya Bora Medical Clinic (Turkana Central)",
    "phoneNumber": "0799 426050",
    "latitude": "3.11942",
    "longitude": "35.59954",
    "time": "8 a.m.-9 p.m."
  },
  {
    "name": "Afya Bora Medical Clinic (Westlands)",
    "phoneNumber": "0745 151635",
    "latitude": "-1.2644",
    "longitude": "36.75237",
    "time": "7 a.m.-9 p.m."
  },
  {
    "name": "Afya Clinic",
    "phoneNumber": "0761 343949",
    "latitude": "-3.24262",
    "longitude": "38.21918",
    "time": "Open 24 hours"
  },
  {
    "name": "Afya Frank Medical Clinic",
    "phoneNumber": "0763 250020",
    "latitude": "-1.38778",
    "longitude": "36.7523",
    "time": "7 a.m.-9 p.m."
  },
  {
    "name": "Afya Health Services",
    "phoneNumber": "0726 540112",
    "latitude": "-0.557562",
    "longitude": "37.0525",
    "time": "7 a.m.-9 p.m."
  },
  {
    "name": "Afya Link Ngurubani Clinic",
    "phoneNumber": "0743 816637",
    "latitude": "-0.68405",
    "longitude": "37.3581",
    "time": "7 a.m.-8 p.m."
  },
  {
    "name": "Afya Medical Centre",
    "phoneNumber": "0721 489285",
    "latitude": "-4.00659",
    "longitude": "39.70123",
    "time": "8 a.m.-8 p.m."
  },
  {
    "name": "Afya Medical Clinic",
    "phoneNumber": "0730 592540",
    "latitude": "-1.07444",
    "longitude": "36.9855",
    "time": "Open 24 hours"
  },
  {
    "name": "Afya Medical Clinic",
    "phoneNumber": "0771 378058",
    "latitude": "0.14007",
    "longitude": "37.53345",
    "time": "Open 24 hours"
  },
  {
    "name": "Afya Medical Clinic (Dandora)",
    "phoneNumber": "0780 784991",
    "latitude": "-1.25143",
    "longitude": "36.90057",
    "time": "8 a.m.-8 p.m."
  },
  {
    "name": "Afya Medical Clinic (Garissa)",
    "phoneNumber": "0713 823307",
    "latitude": "-0.45654",
    "longitude": "39.63904",
    "time": "7 a.m.-7 p.m."
  },
  {
    "name": "Afya Medical Clinic (Gilgil)",
    "phoneNumber": "0752 521092",
    "latitude": "-0.49987",
    "longitude": "36.32373",
    "time": "8 a.m.-8 p.m."
  },
  {
    "name": "Afya Medical Clinic (Gwakungu)",
    "phoneNumber": "0753 944800",
    "latitude": "0.0165",
    "longitude": "36.49255",
    "time": "7 a.m.-9 p.m."
  },
  {
    "name": "Afya Medical Clinic (Mbaruk)",
    "phoneNumber": "0723 168251",
    "latitude": "-0.35429",
    "longitude": "36.21398",
    "time": "7 a.m.-8 p.m."
  },
  {
    "name": "Afya Medical Clinic (Meru)",
    "phoneNumber": "0715 507805",
    "latitude": "0.04021",
    "longitude": "37.64849",
    "time": "8 a.m.-8 p.m."
  },
  {
    "name": "Afya Medical Clinic (Munyaka)",
    "phoneNumber": "0747 619014",
    "latitude": "-0.68826",
    "longitude": "36.62214",
    "time": "8 a.m.-9 p.m."
  },
  {
    "name": "Afya Medical Clinic (Muranga North)",
    "phoneNumber": "0776 852648",
    "latitude": "-0.647721",
    "longitude": "36.9012",
    "time": "7 a.m.-7 p.m."
  },
  {
    "name": "Afya Medical Clinic (Nakuru)",
    "phoneNumber": "0740 212506",
    "latitude": "-0.29448",
    "longitude": "36.09211",
    "time": "8 a.m.-8 p.m."
  },
  {
    "name": "Afya Medical Clinic (Nyeri North)",
    "phoneNumber": "0765 743003",
    "latitude": "-0.48076",
    "longitude": "37.12301",
    "time": "8 a.m.-8 p.m."
  },
  {
    "name": "Afya Medical Clinic (Nyeri South)",
    "phoneNumber": "0781 507695",
    "latitude": "-0.63244",
    "longitude": "37.12623",
    "time": "7 a.m.-8 p.m."
  },
  {
    "name": "Afya Medical Clinic and Nursing Home (Wajir East)",
    "phoneNumber": "0721 988080",
    "latitude": "1.74477",
    "longitude": "40.05697",
    "time": "7 a.m.-7 p.m."
  },
  {
    "name": "Afya Medical Clinic(Dagoretti Market)",
    "phoneNumber": "0785 498061",
    "latitude": "-1.28628",
    "longitude": "36.68569",
    "time": "8 a.m.-8 p.m."
  },
  {
    "name": "Afya Medical Clinic(Mwingi)",
    "phoneNumber": "0733 842464",
    "latitude": "-0.94306",
    "longitude": "38.06352",
    "time": "8 a.m.-8 p.m."
  },
  {
    "name": "Afya Medical Laboratory",
    "phoneNumber": "0759 411071",
    "latitude": "0.12265",
    "longitude": "37.55971",
    "time": "7 a.m.-7 p.m."
  },
  {
    "name": "Afya Medicare Clinic",
    "phoneNumber": "0737 766507",
    "latitude": "-0.20607",
    "longitude": "37.09822",
    "time": "7 a.m.-9 p.m."
  },
  {
    "name": "Afya Medicare Clinic (Wajir East)",
    "phoneNumber": "0710 329375",
    "latitude": "1.75129",
    "longitude": "40.05686",
    "time": "8 a.m.-9 p.m."
  },
  {
    "name": "Afya Njema Clinic",
    "phoneNumber": "0751 281151",
    "latitude": "-1.4536",
    "longitude": "36.98832",
    "time": "Open 24 hours"
  },
  {
    "name": "Afya Njema Medical Clinic",
    "phoneNumber": "0753 207413",
    "latitude": "-0.20643",
    "longitude": "35.84816",
    "time": "Open 24 hours"
  },
  {
    "name": "Afya Njema Medical Clinic (Nyeri North)",
    "phoneNumber": "0766 151794",
    "latitude": "-0.1697",
    "longitude": "37.02112",
    "time": "7 a.m.-9 p.m."
  },
  {
    "name": "Afya Nursing Home (Moyale)",
    "phoneNumber": "0780 710328",
    "latitude": "3.52265",
    "longitude": "39.0586",
    "time": "7 a.m.-7 p.m."
  },
  {
    "name": "Afya Yako Medical Clinic",
    "phoneNumber": "0761 243659",
    "latitude": "-0.42228",
    "longitude": "37.0",
    "time": "8 a.m.-8 p.m."
  },
  {
    "name": "Afya Yetu Medical Centre",
    "phoneNumber": "0710 883339",
    "latitude": "-1.39246",
    "longitude": "36.75079",
    "time": "7 a.m.-9 p.m."
  },
  {
    "name": "Afyafirst Medical Center",
    "phoneNumber": "0721 913055",
    "latitude": "-4.04277",
    "longitude": "39.66018",
    "time": "8 a.m.-9 p.m."
  },
  {
    "name": "Afyamax Medical & Centre Dental",
    "phoneNumber": "0748 637979",
    "latitude": "-1.20694",
    "longitude": "36.89414",
    "time": "7 a.m.-9 p.m."
  },
  {
    "name": "Aga Khan",
    "phoneNumber": "0777 859719",
    "latitude": "0.04165",
    "longitude": "36.36212",
    "time": "7 a.m.-8 p.m."
  },
  {
    "name": "Aga Khan Clinic",
    "phoneNumber": "0732 823610",
    "latitude": "0.0101",
    "longitude": "37.07546",
    "time": "8 a.m.-8 p.m."
  },
  {
    "name": "Aga Khan Clinic ( Ngong  Rd Prestige)",
    "phoneNumber": "0747 360553",
    "latitude": "-1.28321",
    "longitude": "36.8405",
    "time": "8 a.m.-9 p.m."
  },
  {
    "name": "Aga Khan Clinic (Eastleigh)",
    "phoneNumber": "0757 987019",
    "latitude": "-1.27911",
    "longitude": "36.84887",
    "time": "7 a.m.-7 p.m."
  },
  {
    "name": "Aga Khan Clinic Kitengela",
    "phoneNumber": "0778 224337",
    "latitude": "-1.47256",
    "longitude": "36.95456",
    "time": "8 a.m.-8 p.m."
  },
  {
    "name": "Aga Khan Greenspam Medical Centre",
    "phoneNumber": "0755 290791",
    "latitude": "-1.29923",
    "longitude": "36.90131",
    "time": "7 a.m.-9 p.m."
  },
  {
    "name": "Aga Khan Health Service Bungoma Centre",
    "phoneNumber": "0771 209576",
    "latitude": "0.54743",
    "longitude": "34.56167",
    "time": "7 a.m.-7 p.m."
  },
  {
    "name": "Aga Khan Hospital (Juja)",
    "phoneNumber": "0760 936221",
    "latitude": "-1.04323",
    "longitude": "36.89654",
    "time": "7 a.m.-9 p.m."
  },
  {
    "name": "Aga Khan MC Kitale",
    "phoneNumber": "0786 121550",
    "latitude": "1.0129",
    "longitude": "35.00263",
    "time": "Open 24 hours"
  },
  {
    "name": "Aga Khan Medical Centre Kericho",
    "phoneNumber": "0798 836353",
    "latitude": "-0.37218",
    "longitude": "35.28087",
    "time": "7 a.m.-9 p.m."
  },
  {
    "name": "Aga Khan University Hospital (Capital Centre)",
    "phoneNumber": "0772 202482",
    "latitude": "-1.31661",
    "longitude": "36.83386",
    "time": "8 a.m.-9 p.m."
  },
  {
    "name": "Aga Khan University Hospital Clinic (Naivasha)",
    "phoneNumber": "0748 858115",
    "latitude": "-0.71459",
    "longitude": "36.43354",
    "time": "7 a.m.-9 p.m."
  },
  {
    "name": "Aga Khan University Hospital Kiambu Clinic",
    "phoneNumber": "0784 934877",
    "latitude": "-1.17195",
    "longitude": "36.82934",
    "time": "8 a.m.-8 p.m."
  },
  {
    "name": "Aga Khan University Hospital -New Machakos Medical",
    "phoneNumber": "0786 354033",
    "latitude": "-1.51993",
    "longitude": "37.26969",
    "time": "7 a.m.-7 p.m."
  },
  {
    "name": "Aga Khan University Hospital O/R Clinic",
    "phoneNumber": "0758 197036",
    "latitude": "-1.38778",
    "longitude": "36.7523",
    "time": "7 a.m.-9 p.m."
  },
  {
    "name": "Agakhan Kisii",
    "phoneNumber": "0741 238837",
    "latitude": "-0.4047",
    "longitude": "34.46258",
    "time": "8 a.m.-9 p.m."
  },
  {
    "name": "Agakhan Medical Centre",
    "phoneNumber": "0767 166940",
    "latitude": "-0.28651",
    "longitude": "36.06348",
    "time": "7 a.m.-8 p.m."
  },
  {
    "name": "Agape Medical Services",
    "phoneNumber": "0786 531824",
    "latitude": "-0.789993",
    "longitude": "36.917",
    "time": "7 a.m.-9 p.m."
  },
  {
    "name": "Agma Clinic",
    "phoneNumber": "0763 543978",
    "latitude": "0.15523",
    "longitude": "34.91108",
    "time": "8 a.m.-8 p.m."
  },
  {
    "name": "Ahadi Medical Clinic",
    "phoneNumber": "0789 969456",
    "latitude": "-3.83283",
    "longitude": "39.4514",
    "time": "8 a.m.-8 p.m."
  },
  {
    "name": "Ahero Medical Centre",
    "phoneNumber": "0712 636556",
    "latitude": "-0.17296",
    "longitude": "34.92412",
    "time": "7 a.m.-8 p.m."
  },
  {
    "name": "AHF Soko Clinic",
    "phoneNumber": "0760 594971",
    "latitude": "-4.04153",
    "longitude": "39.68325",
    "time": "8 a.m.-9 p.m."
  },
  {
    "name": "AIC Liten VCT",
    "phoneNumber": "0787 145144",
    "latitude": "-0.58129",
    "longitude": "35.19104",
    "time": "7 a.m.-8 p.m."
  },
  {
    "name": "AIC Zion Medical Clinic",
    "phoneNumber": "0791 652488",
    "latitude": "-1.26107",
    "longitude": "36.87213",
    "time": "7 a.m.-8 p.m."
  },
  {
    "name": "AIDS Health Care Foundation Parklands Clinic",
    "phoneNumber": "0795 787588",
    "latitude": "-1.25811",
    "longitude": "36.81368",
    "time": "7 a.m.-8 p.m."
  },
  {
    "name": "Aimon med clinic",
    "phoneNumber": "0739 530757",
    "latitude": "-1.24041",
    "longitude": "36.89572",
    "time": "7 a.m.-9 p.m."
  },
  {
    "name": "Air Port Medical Centre",
    "phoneNumber": "0789 172894",
    "latitude": "-1.39374",
    "longitude": "36.94028",
    "time": "7 a.m.-8 p.m."
  },
  {
    "name": "Airborne No Twist Huduma Bora Clinic",
    "phoneNumber": "0779 342737",
    "latitude": "-0.43029",
    "longitude": "37.3092",
    "time": "8 a.m.-8 p.m."
  },
  {
    "name": "Airport View Medical Clinic",
    "phoneNumber": "0735 821719",
    "latitude": "-4.02982",
    "longitude": "39.6125",
    "time": "Open 24 hours"
  },
  {
    "name": "Airstrip Medical Clinic (Moyale)",
    "phoneNumber": "0737 406330",
    "latitude": "3.5234",
    "longitude": "39.0486",
    "time": "7 a.m.-9 p.m."
  },
  {
    "name": "Airtech Medical Clinic",
    "phoneNumber": "0773 192806",
    "latitude": "-1.45336",
    "longitude": "36.65985",
    "time": "8 a.m.-9 p.m."
  },
  {
    "name": "Ajam VCT",
    "phoneNumber": "0740 681686",
    "latitude": "-1.44125",
    "longitude": "36.69003",
    "time": "8 a.m.-8 p.m."
  },
  {
    "name": "Aka Khan  Medical Clinic",
    "phoneNumber": "0793 387235",
    "latitude": "1.01212",
    "longitude": "35.007",
    "time": "7 a.m.-9 p.m."
  },
  {
    "name": "Akemo Medical Clinic",
    "phoneNumber": "0724 319985",
    "latitude": "-4.08743",
    "longitude": "39.65945",
    "time": "7 a.m.-8 p.m."
  },
  {
    "name": "Akemo Nursing Home",
    "phoneNumber": "0783 596492",
    "latitude": "-0.93404",
    "longitude": "34.84508",
    "time": "7 a.m.-9 p.m."
  },
  {
    "name": "Akicha Medical Services",
    "phoneNumber": "0711 956043",
    "latitude": "3.10973",
    "longitude": "35.60969",
    "time": "7 a.m.-7 p.m."
  },
  {
    "name": "Akidiva Kehancha Outpatient Clinic",
    "phoneNumber": "0774 104074",
    "latitude": "-1.19707",
    "longitude": "34.61838",
    "time": "8 a.m.-8 p.m."
  },
  {
    "name": "Akshar Nursing Home",
    "phoneNumber": "0723 822957",
    "latitude": "-1.2486",
    "longitude": "36.66343",
    "time": "7 a.m.-9 p.m."
  },
  {
    "name": "Al - Azhar Medical Clinic Centre",
    "phoneNumber": "0775 616672",
    "latitude": "1.75741",
    "longitude": "40.06809",
    "time": "8 a.m.-8 p.m."
  },
  {
    "name": "Al - Bushra Medical Centre",
    "phoneNumber": "0781 445398",
    "latitude": "1.75101",
    "longitude": "40.05594",
    "time": "8 a.m.-8 p.m."
  },
  {
    "name": "Al - Hayat Medicare",
    "phoneNumber": "0792 383876",
    "latitude": "1.74546",
    "longitude": "40.0578",
    "time": "7 a.m.-9 p.m."
  },
  {
    "name": "Al - Nasri Medical Care",
    "phoneNumber": "0758 979904",
    "latitude": "1.74395",
    "longitude": "40.05675",
    "time": "8 a.m.-9 p.m."
  },
  {
    "name": "Al Amin Medical Clinic",
    "phoneNumber": "0756 466577",
    "latitude": "-0.44251",
    "longitude": "39.64477",
    "time": "7 a.m.-7 p.m."
  },
  {
    "name": "Al -Arbrar Medical Clinic",
    "phoneNumber": "0741 269585",
    "latitude": "1.09575",
    "longitude": "36.6982",
    "time": "Open 24 hours"
  },
  {
    "name": "Al Azhar Medical Clinic",
    "phoneNumber": "0796 964833",
    "latitude": "-4.05469",
    "longitude": "39.66462",
    "time": "7 a.m.-9 p.m."
  },
  {
    "name": "Al Iklas Nursing Home",
    "phoneNumber": "0713 294798",
    "latitude": "-0.43733",
    "longitude": "39.65465",
    "time": "7 a.m.-9 p.m."
  },
  {
    "name": "AL Nur Medical Clinic & Laboratory",
    "phoneNumber": "0784 113180",
    "latitude": "-0.10131",
    "longitude": "34.76148",
    "time": "Open 24 hours"
  },
  {
    "name": "Al Qudus Clinic",
    "phoneNumber": "0723 127306",
    "latitude": "-0.42807",
    "longitude": "39.65069",
    "time": "7 a.m.-7 p.m."
  },
  {
    "name": "Al Riyadh Medical Clinic",
    "phoneNumber": "0796 129064",
    "latitude": "-4.02498",
    "longitude": "39.62522",
    "time": "7 a.m.-9 p.m."
  },
  {
    "name": "Al-Agsa Medical Clinic",
    "phoneNumber": "0773 467098",
    "latitude": "-4.04328",
    "longitude": "39.66141",
    "time": "7 a.m.-9 p.m."
  },
  {
    "name": "Alakara Medical Clinic",
    "phoneNumber": "0747 256516",
    "latitude": "4.24126",
    "longitude": "34.3986",
    "time": "8 a.m.-9 p.m."
  },
  {
    "name": "Al-Amin Medical Clinic",
    "phoneNumber": "0781 794344",
    "latitude": "-3.21457",
    "longitude": "40.11477",
    "time": "8 a.m.-9 p.m."
  },
  {
    "name": "Al-Ansar Medical Clinic",
    "phoneNumber": "0714 915643",
    "latitude": "3.93993",
    "longitude": "41.85313",
    "time": "8 a.m.-9 p.m."
  },
  {
    "name": "Al-Aqsa Medical Clinic",
    "phoneNumber": "0767 973013",
    "latitude": "-0.43754",
    "longitude": "39.64364",
    "time": "Open 24 hours"
  },
  {
    "name": "Albilal Medical Clinic (Moyale)",
    "phoneNumber": "0772 822801",
    "latitude": "3.5254",
    "longitude": "39.0584",
    "time": "7 a.m.-8 p.m."
  },
  {
    "name": "Al-Bir Medical Centre",
    "phoneNumber": "0719 591799",
    "latitude": "-4.05228",
    "longitude": "39.67372",
    "time": "7 a.m.-9 p.m."
  },
  {
    "name": "Al-Bir Medical Centre (Kilindini)",
    "phoneNumber": "0714 146232",
    "latitude": "-4.03019",
    "longitude": "39.62144",
    "time": "8 a.m.-9 p.m."
  },
  {
    "name": "Aldai Medical Services",
    "phoneNumber": "0786 152114",
    "latitude": "0.10507",
    "longitude": "35.18089",
    "time": "Open 24 hours"
  },
  {
    "name": "Al-Fallah Medical Clinic",
    "phoneNumber": "0719 446732",
    "latitude": "-1.27173",
    "longitude": "36.85126",
    "time": "7 a.m.-8 p.m."
  },
  {
    "name": "Al-Faruq Medical Clinic",
    "phoneNumber": "0727 934637",
    "latitude": "-0.43834",
    "longitude": "39.65516",
    "time": "7 a.m.-7 p.m."
  },
  {
    "name": "Al-Firdaus Health Care",
    "phoneNumber": "0734 592336",
    "latitude": "-4.04535",
    "longitude": "39.66511",
    "time": "Open 24 hours"
  },
  {
    "name": "Al-Furaqan Clinic",
    "phoneNumber": "0755 745259",
    "latitude": "1.74871",
    "longitude": "40.05859",
    "time": "7 a.m.-7 p.m."
  },
  {
    "name": "Al-Gadhir Clinic",
    "phoneNumber": "0739 177507",
    "latitude": "-1.28293",
    "longitude": "36.74322",
    "time": "8 a.m.-8 p.m."
  },
  {
    "name": "Alhamdu Medical Clinic",
    "phoneNumber": "0760 390679",
    "latitude": "1.01591",
    "longitude": "39.49084",
    "time": "7 a.m.-7 p.m."
  },
  {
    "name": "Al-Hamdu Medical Clinic",
    "phoneNumber": "0770 148291",
    "latitude": "1.75129",
    "longitude": "40.05686",
    "time": "7 a.m.-7 p.m."
  },
  {
    "name": "Al-Haqq Medical Clinic",
    "phoneNumber": "0722 324173",
    "latitude": "1.74691",
    "longitude": "40.05662",
    "time": "8 a.m.-9 p.m."
  },
  {
    "name": "Alhidaya Medical Clinic",
    "phoneNumber": "0713 582967",
    "latitude": "1.01708",
    "longitude": "39.49343",
    "time": "8 a.m.-9 p.m."
  },
  {
    "name": "Alice Nursing Home",
    "phoneNumber": "0780 347940",
    "latitude": "-1.31699",
    "longitude": "36.8865",
    "time": "7 a.m.-7 p.m."
  },
  {
    "name": "Alika Medical Clinic",
    "phoneNumber": "0746 412430",
    "latitude": "-1.21849",
    "longitude": "36.71338",
    "time": "7 a.m.-8 p.m."
  },
  {
    "name": "Aliki Medical Centre",
    "phoneNumber": "0753 569788",
    "latitude": "-1.1733",
    "longitude": "36.7584",
    "time": "7 a.m.-8 p.m."
  },
  {
    "name": "All Care Medical Centre",
    "phoneNumber": "0791 591098",
    "latitude": "-1.3234",
    "longitude": "36.70736",
    "time": "7 a.m.-8 p.m."
  },
  {
    "name": "All Day Medical Clinic",
    "phoneNumber": "0754 880545",
    "latitude": "-0.624374",
    "longitude": "36.8481",
    "time": "7 a.m.-8 p.m."
  },
  {
    "name": "All Saints Musaa",
    "phoneNumber": "0792 900874",
    "latitude": "0.293967",
    "longitude": "34.6629",
    "time": "7 a.m.-7 p.m."
  },
  {
    "name": "Alliance Clinic",
    "phoneNumber": "0712 764430",
    "latitude": "0.11834",
    "longitude": "34.73399",
    "time": "Open 24 hours"
  },
  {
    "name": "Alliance Medical Centre",
    "phoneNumber": "0710 911004",
    "latitude": "-1.27943",
    "longitude": "36.85035",
    "time": "7 a.m.-7 p.m."
  },
  {
    "name": "Alliance Medical Clinic",
    "phoneNumber": "0733 943850",
    "latitude": "-0.45358",
    "longitude": "39.64202",
    "time": "8 a.m.-8 p.m."
  },
  {
    "name": "Alliance Medical Clinic (Kirinyaga)",
    "phoneNumber": "0758 196576",
    "latitude": "-0.56087",
    "longitude": "37.18919",
    "time": "7 a.m.-8 p.m."
  },
  {
    "name": "Al-Maaruf Clinic",
    "phoneNumber": "0736 730941",
    "latitude": "1.74985",
    "longitude": "40.05763",
    "time": "8 a.m.-8 p.m."
  },
  {
    "name": "Almacy Medical  Clinic",
    "phoneNumber": "0721 874785",
    "latitude": "-0.06349",
    "longitude": "34.06152",
    "time": "Open 24 hours"
  },
  {
    "name": "Al-Maqdis ENT Clinic",
    "phoneNumber": "0777 911770",
    "latitude": "-0.44803",
    "longitude": "39.64778",
    "time": "Open 24 hours"
  },
  {
    "name": "Almed Health Products",
    "phoneNumber": "0788 549217",
    "latitude": "3.93029",
    "longitude": "41.8686",
    "time": "7 a.m.-7 p.m."
  },
  {
    "name": "Al-Mumtaz Medical Clinic",
    "phoneNumber": "0752 723851",
    "latitude": "-0.47455",
    "longitude": "39.65443",
    "time": "8 a.m.-8 p.m."
  },
  {
    "name": "Al-Mustaqim Clinic",
    "phoneNumber": "0784 373556",
    "latitude": "1.75129",
    "longitude": "40.05686",
    "time": "7 a.m.-9 p.m."
  },
  {
    "name": "Alnas Medical Clinic",
    "phoneNumber": "0782 315936",
    "latitude": "3.93456",
    "longitude": "41.85067",
    "time": "7 a.m.-9 p.m."
  },
  {
    "name": "Alnasar Medical Clinic",
    "phoneNumber": "0784 721671",
    "latitude": "-0.44308",
    "longitude": "39.64489",
    "time": "7 a.m.-7 p.m."
  },
  {
    "name": "Alpha Community Health Clinic (Migori)",
    "phoneNumber": "0793 847361",
    "latitude": "-1.06888",
    "longitude": "34.46355",
    "time": "Open 24 hours"
  },
  {
    "name": "Alpha Dental Services",
    "phoneNumber": "0775 685707",
    "latitude": "1.01627",
    "longitude": "35.00395",
    "time": "8 a.m.-8 p.m."
  },
  {
    "name": "Alpha Family Health Care",
    "phoneNumber": "0762 433749",
    "latitude": "-0.49212",
    "longitude": "36.96777",
    "time": "Open 24 hours"
  },
  {
    "name": "Alpha Medical Agency",
    "phoneNumber": "0744 137739",
    "latitude": "0.116212",
    "longitude": "34.72601",
    "time": "7 a.m.-9 p.m."
  },
  {
    "name": "Alpha Medical Clinic",
    "phoneNumber": "0747 797402",
    "latitude": "1.0997",
    "longitude": "36.6993",
    "time": "7 a.m.-9 p.m."
  },
  {
    "name": "Alpha Medical Clinic (Kambu)",
    "phoneNumber": "0732 729800",
    "latitude": "-2.5961",
    "longitude": "38.07333",
    "time": "8 a.m.-9 p.m."
  },
  {
    "name": "Alpha Medical Clinic (Koibatek)",
    "phoneNumber": "0712 311907",
    "latitude": "0.04847",
    "longitude": "35.72456",
    "time": "7 a.m.-8 p.m."
  },
  {
    "name": "Alpha Medical Clinic Mile Tisa",
    "phoneNumber": "0784 170659",
    "latitude": "-2.43682",
    "longitude": "36.84749",
    "time": "Open 24 hours"
  },
  {
    "name": "Alpha Nursing Home",
    "phoneNumber": "0744 519370",
    "latitude": "-0.93971",
    "longitude": "37.6759",
    "time": "7 a.m.-8 p.m."
  },
  {
    "name": "Alphine Dental Centre (Kencom Hse)",
    "phoneNumber": "0752 142455",
    "latitude": "-1.28579",
    "longitude": "36.82471",
    "time": "7 a.m.-7 p.m."
  },
  {
    "name": "Alphine Health Care Centre",
    "phoneNumber": "0713 753699",
    "latitude": "0.60866",
    "longitude": "34.65489",
    "time": "7 a.m.-7 p.m."
  },
  {
    "name": "Alphond Medical Centre",
    "phoneNumber": "0731 608705",
    "latitude": "0.33465",
    "longitude": "34.48798",
    "time": "7 a.m.-9 p.m."
  },
  {
    "name": "Al-Ramah Healthcare",
    "phoneNumber": "0720 264477",
    "latitude": "-0.4406",
    "longitude": "39.6581",
    "time": "Open 24 hours"
  },
  {
    "name": "Al-Siha Nursing Home",
    "phoneNumber": "0781 256314",
    "latitude": "3.93507",
    "longitude": "41.85256",
    "time": "8 a.m.-8 p.m."
  },
  {
    "name": "Amaal Annex Nursing",
    "phoneNumber": "0799 179643",
    "latitude": "3.93705",
    "longitude": "41.85069",
    "time": "7 a.m.-9 p.m."
  },
  {
    "name": "Amagoro Nursing Home",
    "phoneNumber": "0780 255909",
    "latitude": "0.62761",
    "longitude": "34.33368",
    "time": "7 a.m.-7 p.m."
  },
  {
    "name": "Amal Medical Clinic",
    "phoneNumber": "0775 740823",
    "latitude": "3.93702",
    "longitude": "41.83541",
    "time": "8 a.m.-8 p.m."
  },
  {
    "name": "Amalya Medical Centre",
    "phoneNumber": "0721 476050",
    "latitude": "-1.23322",
    "longitude": "36.67059",
    "time": "Open 24 hours"
  },
  {
    "name": "Amani Clinic",
    "phoneNumber": "0764 415822",
    "latitude": "-0.48204",
    "longitude": "37.1257",
    "time": "7 a.m.-7 p.m."
  },
  {
    "name": "Amani Clinic (Garissa)",
    "phoneNumber": "0737 417414",
    "latitude": "-0.45451",
    "longitude": "39.643",
    "time": "7 a.m.-9 p.m."
  },
  {
    "name": "Amani MC",
    "phoneNumber": "0764 778460",
    "latitude": "1.01365",
    "longitude": "35.00407",
    "time": "7 a.m.-9 p.m."
  },
  {
    "name": "Amani Medical Centre (Suneka)",
    "phoneNumber": "0744 845326",
    "latitude": "-0.67886",
    "longitude": "34.70765",
    "time": "7 a.m.-7 p.m."
  },
  {
    "name": "Amani Medical Clinic",
    "phoneNumber": "0781 937640",
    "latitude": "-1.276",
    "longitude": "37.23",
    "time": "7 a.m.-8 p.m."
  },
  {
    "name": "Amani Medical Clinic (Changamwe)",
    "phoneNumber": "0736 747747",
    "latitude": "-3.99953",
    "longitude": "39.60588",
    "time": "8 a.m.-9 p.m."
  },
  {
    "name": "Amani Medical Clinic (Kambu)",
    "phoneNumber": "0785 770013",
    "latitude": "-2.59398",
    "longitude": "38.07652",
    "time": "8 a.m.-9 p.m."
  },
  {
    "name": "Amani Medical Clinic (Kilifi)",
    "phoneNumber": "0723 120616",
    "latitude": "-3.64157",
    "longitude": "39.84783",
    "time": "7 a.m.-7 p.m."
  },
  {
    "name": "Amani Medical Clinic (Likoni)",
    "phoneNumber": "0776 427231",
    "latitude": "-4.08961",
    "longitude": "39.65088",
    "time": "7 a.m.-9 p.m."
  },
  {
    "name": "Amani Medical Clinic (Malindi)",
    "phoneNumber": "0774 762978",
    "latitude": "-2.86064",
    "longitude": "40.08492",
    "time": "Open 24 hours"
  },
  {
    "name": "Amani Medical Clinic (Meru)",
    "phoneNumber": "0790 469818",
    "latitude": "0.0469",
    "longitude": "37.65956",
    "time": "Open 24 hours"
  },
  {
    "name": "Amani Medical Clinic (Meru)",
    "phoneNumber": "0758 950022",
    "latitude": "0.0469",
    "longitude": "37.65956",
    "time": "Open 24 hours"
  },
  {
    "name": "Amani Medical Clinic (Murungaru)",
    "phoneNumber": "0755 956973",
    "latitude": "-0.58922",
    "longitude": "36.49003",
    "time": "8 a.m.-8 p.m."
  },
  {
    "name": "Amani Medical Clinic Magumu",
    "phoneNumber": "0783 529852",
    "latitude": "-0.86052",
    "longitude": "36.56489",
    "time": "Open 24 hours"
  },
  {
    "name": "Amani Medical Clinic Yatta",
    "phoneNumber": "0737 298557",
    "latitude": "-1.52265",
    "longitude": "37.33527",
    "time": "7 a.m.-8 p.m."
  },
  {
    "name": "Amani VCT",
    "phoneNumber": "0743 667424",
    "latitude": "-4.06274",
    "longitude": "39.67241",
    "time": "7 a.m.-7 p.m."
  },
  {
    "name": "Amazing Grace M C",
    "phoneNumber": "0789 586455",
    "latitude": "-0.13143",
    "longitude": "36.34941",
    "time": "7 a.m.-9 p.m."
  },
  {
    "name": "Amboseli Serena Lodge Clinic",
    "phoneNumber": "0782 226824",
    "latitude": "-2.70725",
    "longitude": "37.26451",
    "time": "8 a.m.-9 p.m."
  },
  {
    "name": "AMEC Laboratories",
    "phoneNumber": "0766 420928",
    "latitude": "-0.28489",
    "longitude": "36.071",
    "time": "7 a.m.-9 p.m."
  },
  {
    "name": "Amina Medical Clinic",
    "phoneNumber": "0785 736593",
    "latitude": "-3.89126",
    "longitude": "39.77954",
    "time": "8 a.m.-8 p.m."
  },
  {
    "name": "Amurt Health Centre (Likoni)",
    "phoneNumber": "0772 916779",
    "latitude": "-4.07765",
    "longitude": "39.65362",
    "time": "7 a.m.-9 p.m."
  },
  {
    "name": "Andersen Medical Centre",
    "phoneNumber": "0727 963466",
    "latitude": "1.20451",
    "longitude": "34.78798",
    "time": "8 a.m.-9 p.m."
  },
  {
    "name": "Angaza VCT",
    "phoneNumber": "0723 846076",
    "latitude": "-1.27541",
    "longitude": "36.91075",
    "time": "7 a.m.-7 p.m."
  },
  {
    "name": "Angelic Medical Centre",
    "phoneNumber": "0797 174359",
    "latitude": "-1.20449",
    "longitude": "36.83379",
    "time": "8 a.m.-8 p.m."
  },
  {
    "name": "Angels Health Services",
    "phoneNumber": "0768 626518",
    "latitude": "0.232003",
    "longitude": "37.94174",
    "time": "7 a.m.-8 p.m."
  },
  {
    "name": "Annex Clinic (Kenyenya)",
    "phoneNumber": "0730 756905",
    "latitude": "-0.91614",
    "longitude": "34.79611",
    "time": "8 a.m.-8 p.m."
  },
  {
    "name": "Annex Health Care",
    "phoneNumber": "0767 852102",
    "latitude": "-1.20013",
    "longitude": "36.90185",
    "time": "7 a.m.-7 p.m."
  },
  {
    "name": "Annex Laboratory",
    "phoneNumber": "0777 953840",
    "latitude": "-0.001332",
    "longitude": "37.094",
    "time": "7 a.m.-8 p.m."
  },
  {
    "name": "Annex Medical Clinic",
    "phoneNumber": "0770 158802",
    "latitude": "-0.57653",
    "longitude": "37.63925",
    "time": "8 a.m.-8 p.m."
  },
  {
    "name": "Annex Medical Clinic (Muranga North)",
    "phoneNumber": "0773 610305",
    "latitude": "-0.60221",
    "longitude": "36.95693",
    "time": "Open 24 hours"
  },
  {
    "name": "Annex Medical Clinic (Trans Nzoia West)",
    "phoneNumber": "0713 912998",
    "latitude": "0.8915",
    "longitude": "34.91984",
    "time": "8 a.m.-8 p.m."
  },
  {
    "name": "Annointed Medical Clinic",
    "phoneNumber": "0759 634780",
    "latitude": "0.29934",
    "longitude": "34.50601",
    "time": "7 a.m.-8 p.m."
  },
  {
    "name": "Ansar Medical Clinic",
    "phoneNumber": "0793 808679",
    "latitude": "-3.98311",
    "longitude": "39.5958",
    "time": "7 a.m.-9 p.m."
  },
  {
    "name": "Antodevi Medical Clinic",
    "phoneNumber": "0740 708244",
    "latitude": "0.20056",
    "longitude": "37.94756",
    "time": "7 a.m.-9 p.m."
  },
  {
    "name": "Antony Njogu Clinic",
    "phoneNumber": "0748 838728",
    "latitude": "-0.001332",
    "longitude": "37.094",
    "time": "8 a.m.-8 p.m."
  },
  {
    "name": "Anza Mapema-Drop in Dice",
    "phoneNumber": "0715 382696",
    "latitude": "-0.04721",
    "longitude": "34.67107",
    "time": "8 a.m.-9 p.m."
  },
  {
    "name": "Apha Laboratory",
    "phoneNumber": "0714 588309",
    "latitude": "-0.66523",
    "longitude": "37.20623",
    "time": "8 a.m.-9 p.m."
  },
  {
    "name": "Aphia Disc 1 Nanyuki Transport",
    "phoneNumber": "0751 697669",
    "latitude": "0.0143",
    "longitude": "37.07866",
    "time": "Open 24 hours"
  },
  {
    "name": "Aphia Plus Marps Dic Nanyuki",
    "phoneNumber": "0715 970198",
    "latitude": "0.01413",
    "longitude": "37.0703",
    "time": "7 a.m.-8 p.m."
  },
  {
    "name": "Aphiaplus Drop-In Centre (Naivasha)",
    "phoneNumber": "0727 413255",
    "latitude": "-0.71238",
    "longitude": "36.42947",
    "time": "7 a.m.-7 p.m."
  },
  {
    "name": "Appex Medical Clinic",
    "phoneNumber": "0790 183319",
    "latitude": "0.10631",
    "longitude": "35.18473",
    "time": "8 a.m.-9 p.m."
  },
  {
    "name": "Aqswaa Medical Clinic",
    "phoneNumber": "0720 553278",
    "latitude": "-4.36865",
    "longitude": "39.40521",
    "time": "Open 24 hours"
  },
  {
    "name": "Aqua Medical Clinic",
    "phoneNumber": "0789 678339",
    "latitude": "-0.17129",
    "longitude": "37.02035",
    "time": "7 a.m.-7 p.m."
  },
  {
    "name": "Aquilla Farm Medical Clinic",
    "phoneNumber": "0773 779416",
    "latitude": "-0.74543",
    "longitude": "36.25053",
    "time": "Open 24 hours"
  },
  {
    "name": "Arara ENT Clinic",
    "phoneNumber": "0716 464501",
    "latitude": "1.01555",
    "longitude": "35.00208",
    "time": "7 a.m.-8 p.m."
  },
  {
    "name": "Arara ENT Clinic",
    "phoneNumber": "0748 199863",
    "latitude": "1.01555",
    "longitude": "35.00208",
    "time": "7 a.m.-9 p.m."
  },
  {
    "name": "Arcade Medical Clinic",
    "phoneNumber": "0786 683447",
    "latitude": "-0.48011",
    "longitude": "37.12399",
    "time": "7 a.m.-9 p.m."
  },
  {
    "name": "Arcade Medical Clinic (Ruiru)",
    "phoneNumber": "0784 795591",
    "latitude": "-1.21078",
    "longitude": "36.92446",
    "time": "7 a.m.-8 p.m."
  },
  {
    "name": "Aren Medical Clinic",
    "phoneNumber": "0793 172563",
    "latitude": "-1.10928",
    "longitude": "36.62803",
    "time": "7 a.m.-7 p.m."
  },
  {
    "name": "Aren Medical Clinic",
    "phoneNumber": "0775 571484",
    "latitude": "-1.10928",
    "longitude": "36.62803",
    "time": "8 a.m.-8 p.m."
  },
  {
    "name": "Arimi Clinic and Laboratory",
    "phoneNumber": "0735 488203",
    "latitude": "-0.53512",
    "longitude": "37.45099",
    "time": "7 a.m.-8 p.m."
  },
  {
    "name": "Armstrong",
    "phoneNumber": "0786 290915",
    "latitude": "0.29934",
    "longitude": "34.50601",
    "time": "7 a.m.-9 p.m."
  },
  {
    "name": "Arrow Web Maternity and Nursing Home",
    "phoneNumber": "0719 533769",
    "latitude": "-1.26843",
    "longitude": "36.9211",
    "time": "7 a.m.-7 p.m."
  },
  {
    "name": "Artisan Dental Laboratory (Nairobi)",
    "phoneNumber": "0748 325244",
    "latitude": "-1.2887",
    "longitude": "36.82838",
    "time": "7 a.m.-9 p.m."
  },
  {
    "name": "Asantey Clinic",
    "phoneNumber": "0728 473452",
    "latitude": "-1.0349",
    "longitude": "37.0768",
    "time": "7 a.m.-8 p.m."
  },
  {
    "name": "Asembo Bay Health Clinic (Rarieda)",
    "phoneNumber": "0744 814130",
    "latitude": "-0.1815",
    "longitude": "34.38582",
    "time": "8 a.m.-8 p.m."
  },
  {
    "name": "Ashburn Ohuru Clinic",
    "phoneNumber": "0718 515690",
    "latitude": "0.03228",
    "longitude": "34.31474",
    "time": "7 a.m.-9 p.m."
  },
  {
    "name": "Ashraf Medical Clinic",
    "phoneNumber": "0764 875196",
    "latitude": "-4.06111",
    "longitude": "39.67204",
    "time": "Open 24 hours"
  },
  {
    "name": "Aski Medical Clinic",
    "phoneNumber": "0796 584530",
    "latitude": "-1.26552",
    "longitude": "36.92215",
    "time": "8 a.m.-9 p.m."
  },
  {
    "name": "ASPE Medical Clinic",
    "phoneNumber": "0787 931984",
    "latitude": "-1.0321",
    "longitude": "36.83175",
    "time": "8 a.m.-8 p.m."
  },
  {
    "name": "Association of Physically Disabled of Kenya",
    "phoneNumber": "0742 127503",
    "latitude": "-1.258096",
    "longitude": "36.7786",
    "time": "8 a.m.-9 p.m."
  },
  {
    "name": "Assumption Sisters Mbooni Clinic",
    "phoneNumber": "0791 347182",
    "latitude": "-1.66007",
    "longitude": "37.44812",
    "time": "Open 24 hours"
  },
  {
    "name": "Asumbi Annex Dispensary",
    "phoneNumber": "0761 841029",
    "latitude": "-0.6246",
    "longitude": "34.50363",
    "time": "7 a.m.-7 p.m."
  },
  {
    "name": "Asumbi Teachers Training College",
    "phoneNumber": "0786 528122",
    "latitude": "-0.6018",
    "longitude": "34.23737",
    "time": "7 a.m.-7 p.m."
  },
  {
    "name": "Atakara Medical Clinic",
    "phoneNumber": "0761 839558",
    "latitude": "-1.26651",
    "longitude": "37.3199",
    "time": "7 a.m.-7 p.m."
  },
  {
    "name": "Athi Complex Community Centre",
    "phoneNumber": "0720 911440",
    "latitude": "-1.4452",
    "longitude": "36.9768",
    "time": "8 a.m.-8 p.m."
  },
  {
    "name": "Athi River Community Hospital",
    "phoneNumber": "0713 677367",
    "latitude": "-1.46131",
    "longitude": "36.97934",
    "time": "7 a.m.-8 p.m."
  },
  {
    "name": "Athi River Medical Services",
    "phoneNumber": "0797 390203",
    "latitude": "-1.45772",
    "longitude": "36.97749",
    "time": "8 a.m.-8 p.m."
  },
  {
    "name": "Atlas Medical Clinic",
    "phoneNumber": "0740 348816",
    "latitude": "-0.54785",
    "longitude": "36.94291",
    "time": "7 a.m.-8 p.m."
  },
  {
    "name": "Avarende Medical Clinic",
    "phoneNumber": "0760 686950",
    "latitude": "0.30369",
    "longitude": "34.76259",
    "time": "8 a.m.-9 p.m."
  },
  {
    "name": "Avenue Health Care",
    "phoneNumber": "0735 804236",
    "latitude": "-4.04906",
    "longitude": "39.67352",
    "time": "8 a.m.-9 p.m."
  },
  {
    "name": "Avenue Health Care (Makadara)",
    "phoneNumber": "0783 465562",
    "latitude": "-1.30337",
    "longitude": "36.86518",
    "time": "7 a.m.-7 p.m."
  },
  {
    "name": "Avenue Health Care Clinic",
    "phoneNumber": "0748 926904",
    "latitude": "-0.10463",
    "longitude": "34.75323",
    "time": "7 a.m.-9 p.m."
  },
  {
    "name": "Avenue Health Care Nakuru",
    "phoneNumber": "0718 350448",
    "latitude": "-0.28633",
    "longitude": "36.06528",
    "time": "7 a.m.-8 p.m."
  },
  {
    "name": "Avenue Health Care Ongata Rongai",
    "phoneNumber": "0753 259467",
    "latitude": "-1.39443",
    "longitude": "36.76322",
    "time": "7 a.m.-9 p.m."
  },
  {
    "name": "Avenue Healthcare Thika",
    "phoneNumber": "0732 575433",
    "latitude": "-1.03879",
    "longitude": "37.07748",
    "time": "8 a.m.-8 p.m."
  },
  {
    "name": "Awendo Jiwdendi",
    "phoneNumber": "0770 420576",
    "latitude": "-0.90578",
    "longitude": "34.52885",
    "time": "7 a.m.-9 p.m."
  },
  {
    "name": "Axis Nursing Home",
    "phoneNumber": "0724 211214",
    "latitude": "-4.05815",
    "longitude": "39.67255",
    "time": "Open 24 hours"
  },
  {
    "name": "Ayan Clinic",
    "phoneNumber": "0726 187352",
    "latitude": "0.614728",
    "longitude": "39.1829",
    "time": "8 a.m.-9 p.m."
  },
  {
    "name": "Azimio Medical Centre",
    "phoneNumber": "0732 522089",
    "latitude": "-4.03355",
    "longitude": "39.66053",
    "time": "7 a.m.-9 p.m."
  },
  {
    "name": "Azimio Medical Clinic (Meru South)",
    "phoneNumber": "0767 983510",
    "latitude": "-0.35511",
    "longitude": "37.66638",
    "time": "Open 24 hours"
  },
  {
    "name": "B & L Healthcare(Naivasha)",
    "phoneNumber": "0713 103547",
    "latitude": "-0.71456",
    "longitude": "36.4335",
    "time": "Open 24 hours"
  },
  {
    "name": "Babadogo (EDARP)",
    "phoneNumber": "0758 164024",
    "latitude": "-1.23916",
    "longitude": "36.8864",
    "time": "8 a.m.-8 p.m."
  },
  {
    "name": "Babito Medical Centre",
    "phoneNumber": "0743 668213",
    "latitude": "-1.25313",
    "longitude": "36.86708",
    "time": "7 a.m.-8 p.m."
  },
  {
    "name": "Badilika VCT",
    "phoneNumber": "0715 167067",
    "latitude": "-0.42111",
    "longitude": "35.00508",
    "time": "Open 24 hours"
  },
  {
    "name": "Badri Medical Clinic",
    "phoneNumber": "0797 935294",
    "latitude": "-4.03605",
    "longitude": "39.69097",
    "time": "7 a.m.-8 p.m."
  },
  {
    "name": "Badria Medical Clinic",
    "phoneNumber": "0766 579998",
    "latitude": "-4.04235",
    "longitude": "39.68392",
    "time": "8 a.m.-8 p.m."
  },
  {
    "name": "Bafana Medical Centre",
    "phoneNumber": "0744 164912",
    "latitude": "-1.26845",
    "longitude": "36.75504",
    "time": "7 a.m.-9 p.m."
  },
  {
    "name": "Bahari Medical Clinic",
    "phoneNumber": "0779 338935",
    "latitude": "-4.08577",
    "longitude": "39.65958",
    "time": "7 a.m.-8 p.m."
  },
  {
    "name": "Bahari Medical Clinic Diani Beach",
    "phoneNumber": "0732 766240",
    "latitude": "-4.30791",
    "longitude": "39.57793",
    "time": "7 a.m.-9 p.m."
  },
  {
    "name": "Bahati Hospital(Joska)",
    "phoneNumber": "0744 481659",
    "latitude": "-1.28363",
    "longitude": "37.09737",
    "time": "7 a.m.-9 p.m."
  },
  {
    "name": "Bahati Medical Clinic",
    "phoneNumber": "0763 529496",
    "latitude": "-1.32065",
    "longitude": "36.9336",
    "time": "7 a.m.-8 p.m."
  },
  {
    "name": "Bahati Medical Clinic (Lugari)",
    "phoneNumber": "0764 981230",
    "latitude": "0.65402",
    "longitude": "34.9643",
    "time": "8 a.m.-9 p.m."
  },
  {
    "name": "Bahati Medical Clinic (West Pokot)",
    "phoneNumber": "0793 839201",
    "latitude": "1.25992",
    "longitude": "35.09843",
    "time": "8 a.m.-9 p.m."
  },
  {
    "name": "Bahati Medical Clinic Migori",
    "phoneNumber": "0712 536463",
    "latitude": "-1.0682",
    "longitude": "34.46918",
    "time": "8 a.m.-8 p.m."
  },
  {
    "name": "Bakarani Community Clinic",
    "phoneNumber": "0749 542607",
    "latitude": "-4.01513",
    "longitude": "39.69491",
    "time": "7 a.m.-9 p.m."
  },
  {
    "name": "Bakarani Maternity and Nursing Home",
    "phoneNumber": "0739 168127",
    "latitude": "-4.0516",
    "longitude": "39.66537",
    "time": "8 a.m.-8 p.m."
  },
  {
    "name": "Bakhita Dispensary",
    "phoneNumber": "0782 810622",
    "latitude": "-3.17445",
    "longitude": "40.06918",
    "time": "7 a.m.-7 p.m."
  },
  {
    "name": "Baldo Ippolita Catholic Health Centre",
    "phoneNumber": "0791 361857",
    "latitude": "-1.19076",
    "longitude": "36.53239",
    "time": "Open 24 hours"
  },
  {
    "name": "Ballore Africa Logistic Staff Clinic",
    "phoneNumber": "0739 862946",
    "latitude": "-4.01822",
    "longitude": "39.63202",
    "time": "7 a.m.-8 p.m."
  },
  {
    "name": "Bamba Medical Clinic",
    "phoneNumber": "0753 326344",
    "latitude": "-3.54347",
    "longitude": "39.522",
    "time": "7 a.m.-8 p.m."
  },
  {
    "name": "Bamburi Medicare",
    "phoneNumber": "0775 265161",
    "latitude": "-4.00329",
    "longitude": "39.6986",
    "time": "8 a.m.-8 p.m."
  },
  {
    "name": "Banadir Clinic",
    "phoneNumber": "0747 897364",
    "latitude": "3.94502",
    "longitude": "41.8354",
    "time": "8 a.m.-9 p.m."
  },
  {
    "name": "Bangii Medical Clinic",
    "phoneNumber": "0771 159909",
    "latitude": "-0.27787",
    "longitude": "36.00408",
    "time": "7 a.m.-7 p.m."
  },
  {
    "name": "Bans Optical (Nairobi)",
    "phoneNumber": "0716 444083",
    "latitude": "-1.28119",
    "longitude": "36.82119",
    "time": "7 a.m.-8 p.m."
  },
  {
    "name": "Baobab Annex Clinic",
    "phoneNumber": "0733 840864",
    "latitude": "-4.02514",
    "longitude": "39.67699",
    "time": "Open 24 hours"
  },
  {
    "name": "Baobab Clinic - Bamburi Cement",
    "phoneNumber": "0739 390715",
    "latitude": "-3.96975",
    "longitude": "39.7061",
    "time": "7 a.m.-9 p.m."
  },
  {
    "name": "Baobab Medical Clinic",
    "phoneNumber": "0728 709092",
    "latitude": "-3.85775",
    "longitude": "39.47657",
    "time": "8 a.m.-8 p.m."
  },
  {
    "name": "Bar Hostess Empowerment and Support Programme (Makadara)",
    "phoneNumber": "0724 448945",
    "latitude": "-1.29381",
    "longitude": "36.84889",
    "time": "7 a.m.-7 p.m."
  },
  {
    "name": "Bar Hostess Empowerment Support Program VCT",
    "phoneNumber": "0762 847530",
    "latitude": "-1.24777",
    "longitude": "36.87193",
    "time": "8 a.m.-8 p.m."
  },
  {
    "name": "Baragwi Maternity Home",
    "phoneNumber": "0711 191585",
    "latitude": "-0.49316",
    "longitude": "37.35107",
    "time": "7 a.m.-9 p.m."
  },
  {
    "name": "Baraka Afya Clinic",
    "phoneNumber": "0713 452781",
    "latitude": "-0.466194",
    "longitude": "37.4963",
    "time": "8 a.m.-8 p.m."
  },
  {
    "name": "Baraka Clinic (Lugari)",
    "phoneNumber": "0715 745577",
    "latitude": "0.60881",
    "longitude": "34.96774",
    "time": "7 a.m.-7 p.m."
  },
  {
    "name": "Baraka Dental Clinic (Maara)",
    "phoneNumber": "0757 931918",
    "latitude": "-0.2236",
    "longitude": "37.63064",
    "time": "Open 24 hours"
  },
  {
    "name": "Baraka Maternity Home",
    "phoneNumber": "0772 138963",
    "latitude": "-0.28909",
    "longitude": "36.07628",
    "time": "7 a.m.-7 p.m."
  },
  {
    "name": "Baraka Medical Cenre",
    "phoneNumber": "0729 107528",
    "latitude": "-1.26675",
    "longitude": "36.75036",
    "time": "7 a.m.-9 p.m."
  },
  {
    "name": "Baraka Medical Clinic",
    "phoneNumber": "0770 483056",
    "latitude": "0.29156",
    "longitude": "35.32586",
    "time": "7 a.m.-8 p.m."
  },
  {
    "name": "Baraka Medical Clinic (Kirinyaga)",
    "phoneNumber": "0752 400311",
    "latitude": "-0.72136",
    "longitude": "37.32264",
    "time": "8 a.m.-9 p.m."
  },
  {
    "name": "Baraka Medical Clinic (Lamu)",
    "phoneNumber": "0770 956644",
    "latitude": "-2.23303",
    "longitude": "40.42008",
    "time": "7 a.m.-9 p.m."
  },
  {
    "name": "Baraka Medical Clinic (Makindu)",
    "phoneNumber": "0746 548774",
    "latitude": "-2.27853",
    "longitude": "37.81889",
    "time": "7 a.m.-9 p.m."
  },
  {
    "name": "Baraka Medical Clinic (Mbitini)",
    "phoneNumber": "0792 708515",
    "latitude": "-1.59188",
    "longitude": "38.11635",
    "time": "8 a.m.-8 p.m."
  },
  {
    "name": "Baraka Medical Clinic (Muranga North)",
    "phoneNumber": "0764 715872",
    "latitude": "-0.713561",
    "longitude": "37.1602",
    "time": "7 a.m.-9 p.m."
  },
  {
    "name": "Baraka Medical Clinic (Pokot Central)",
    "phoneNumber": "0751 522081",
    "latitude": "1.43881",
    "longitude": "35.35712",
    "time": "8 a.m.-8 p.m."
  },
  {
    "name": "Baraka Medical Clinic (Runyenjes)",
    "phoneNumber": "0710 349178",
    "latitude": "-0.42372",
    "longitude": "37.60722",
    "time": "8 a.m.-8 p.m."
  },
  {
    "name": "Baraka Medical Clinic (Samburu East)",
    "phoneNumber": "0756 682563",
    "latitude": "0.980778",
    "longitude": "37.3175",
    "time": "Open 24 hours"
  },
  {
    "name": "Baraka Medical Clinic (Trans Nzoia East)",
    "phoneNumber": "0788 211870",
    "latitude": "1.0282",
    "longitude": "35.12358",
    "time": "8 a.m.-8 p.m."
  },
  {
    "name": "Baraka Medical Clinic (Turkana Central)",
    "phoneNumber": "0789 964263",
    "latitude": "3.10737",
    "longitude": "35.60484",
    "time": "7 a.m.-9 p.m."
  },
  {
    "name": "Baraka Medical Clinic (Vikwatani)",
    "phoneNumber": "0714 249424",
    "latitude": "-4.00513",
    "longitude": "39.68971",
    "time": "7 a.m.-7 p.m."
  },
  {
    "name": "Baraka Medical Clinic Kitengela",
    "phoneNumber": "0711 335114",
    "latitude": "-1.4821",
    "longitude": "36.95013",
    "time": "7 a.m.-9 p.m."
  },
  {
    "name": "Baraka Medical Clinic(Muranga)",
    "phoneNumber": "0735 241802",
    "latitude": "-0.73203",
    "longitude": "36.92821",
    "time": "7 a.m.-7 p.m."
  },
  {
    "name": "Baraka Yetu Medical Clinic",
    "phoneNumber": "0733 192440",
    "latitude": "-1.35512",
    "longitude": "38.0698",
    "time": "7 a.m.-8 p.m."
  },
  {
    "name": "Bargain Medical Clinic",
    "phoneNumber": "0748 689323",
    "latitude": "-0.2795",
    "longitude": "36.12783",
    "time": "7 a.m.-9 p.m."
  },
  {
    "name": "Baringo County Beyond Zero Mobile Clinic",
    "phoneNumber": "0764 801970",
    "latitude": "0.49119",
    "longitude": "35.7436",
    "time": "8 a.m.-8 p.m."
  },
  {
    "name": "Barsheba Medical Clinic",
    "phoneNumber": "0710 722245",
    "latitude": "-4.00313",
    "longitude": "39.71214",
    "time": "Open 24 hours"
  },
  {
    "name": "Barwaqo Clinic",
    "phoneNumber": "0712 951601",
    "latitude": "1.74603",
    "longitude": "40.04796",
    "time": "8 a.m.-8 p.m."
  },
  {
    "name": "Batian Clinical Services",
    "phoneNumber": "0742 762143",
    "latitude": "-1.4773",
    "longitude": "36.95737",
    "time": "7 a.m.-7 p.m."
  },
  {
    "name": "Batian Eye Clinic",
    "phoneNumber": "0750 698015",
    "latitude": "-0.001332",
    "longitude": "37.094",
    "time": "7 a.m.-8 p.m."
  },
  {
    "name": "Batian Flowers Clinic",
    "phoneNumber": "0732 263449",
    "latitude": "0.08117",
    "longitude": "37.28271",
    "time": "Open 24 hours"
  },
  {
    "name": "Batian Laboratory Services",
    "phoneNumber": "0713 629088",
    "latitude": "-0.001332",
    "longitude": "37.094",
    "time": "7 a.m.-9 p.m."
  },
  {
    "name": "Batian Medical Centre",
    "phoneNumber": "0773 954440",
    "latitude": "-1.47634",
    "longitude": "36.95901",
    "time": "8 a.m.-9 p.m."
  },
  {
    "name": "Batian Medical Centre Annex",
    "phoneNumber": "0736 223643",
    "latitude": "-1.48141",
    "longitude": "36.9565",
    "time": "8 a.m.-8 p.m."
  },
  {
    "name": "Batian Medical Services Medical Clinic",
    "phoneNumber": "0770 360150",
    "latitude": "-0.001332",
    "longitude": "37.094",
    "time": "7 a.m.-9 p.m."
  },
  {
    "name": "Bay Way Medical Clinic",
    "phoneNumber": "0735 862930",
    "latitude": "0.00125",
    "longitude": "34.56958",
    "time": "7 a.m.-9 p.m."
  },
  {
    "name": "Bcj Medical Centre",
    "phoneNumber": "0718 213530",
    "latitude": "-0.68528",
    "longitude": "37.35455",
    "time": "8 a.m.-9 p.m."
  },
  {
    "name": "Beacon of Hope Clinic (Kajiado)",
    "phoneNumber": "0746 172558",
    "latitude": "-1.39401",
    "longitude": "36.76284",
    "time": "8 a.m.-9 p.m."
  },
  {
    "name": "Beberion Clinic",
    "phoneNumber": "0770 287007",
    "latitude": "0.82537",
    "longitude": "35.12097",
    "time": "7 a.m.-8 p.m."
  },
  {
    "name": "Becca Medical Clinic",
    "phoneNumber": "0773 641293",
    "latitude": "-1.77963",
    "longitude": "37.62704",
    "time": "8 a.m.-8 p.m."
  },
  {
    "name": "Beggs Clinic",
    "phoneNumber": "0785 543692",
    "latitude": "0.82902",
    "longitude": "35.12129",
    "time": "7 a.m.-8 p.m."
  },
  {
    "name": "Bekam Clinic",
    "phoneNumber": "0716 358784",
    "latitude": "-0.48282",
    "longitude": "35.02174",
    "time": "Open 24 hours"
  },
  {
    "name": "Bengo Medical Clinic",
    "phoneNumber": "0723 736793",
    "latitude": "-3.92993",
    "longitude": "39.56932",
    "time": "7 a.m.-8 p.m."
  },
  {
    "name": "Benmac Clinic",
    "phoneNumber": "0770 899054",
    "latitude": "-0.37458",
    "longitude": "35.9445",
    "time": "8 a.m.-9 p.m."
  },
  {
    "name": "Benrose Clinic",
    "phoneNumber": "0758 683998",
    "latitude": "-0.6248",
    "longitude": "34.50197",
    "time": "7 a.m.-8 p.m."
  },
  {
    "name": "Bens Labs",
    "phoneNumber": "0798 833538",
    "latitude": "-0.47",
    "longitude": "37.3994",
    "time": "8 a.m.-8 p.m."
  },
  {
    "name": "Bensu Health Care Medical Clinic",
    "phoneNumber": "0716 112301",
    "latitude": "0.23298",
    "longitude": "37.94295",
    "time": "7 a.m.-8 p.m."
  },
  {
    "name": "Best Healthlife Clinic",
    "phoneNumber": "0715 212676",
    "latitude": "0.48397",
    "longitude": "35.26107",
    "time": "7 a.m.-7 p.m."
  },
  {
    "name": "Beta Care Nursing Home",
    "phoneNumber": "0782 831248",
    "latitude": "-1.06305",
    "longitude": "36.78275",
    "time": "8 a.m.-8 p.m."
  },
  {
    "name": "Beta Medical & Skin Clinic",
    "phoneNumber": "0720 846067",
    "latitude": "-4.0523",
    "longitude": "39.6737",
    "time": "8 a.m.-9 p.m."
  },
  {
    "name": "Bethania Clinic",
    "phoneNumber": "0794 517355",
    "latitude": "-0.56696",
    "longitude": "36.11691",
    "time": "7 a.m.-7 p.m."
  },
  {
    "name": "Bethania Medical Clinic",
    "phoneNumber": "0781 222052",
    "latitude": "0.25742",
    "longitude": "36.10862",
    "time": "Open 24 hours"
  },
  {
    "name": "Bethany Clinic",
    "phoneNumber": "0716 803170",
    "latitude": "-0.4764",
    "longitude": "37.23567",
    "time": "7 a.m.-8 p.m."
  },
  {
    "name": "Bethany Family Clinic",
    "phoneNumber": "0778 498402",
    "latitude": "-0.30114",
    "longitude": "36.81861",
    "time": "7 a.m.-9 p.m."
  },
  {
    "name": "Bethel Clinic",
    "phoneNumber": "0783 647476",
    "latitude": "-1.27297",
    "longitude": "36.86882",
    "time": "7 a.m.-9 p.m."
  },
  {
    "name": "Bethel Medical Clinic",
    "phoneNumber": "0739 124314",
    "latitude": "-1.15278",
    "longitude": "36.92901",
    "time": "8 a.m.-8 p.m."
  },
  {
    "name": "Bethelm Clinic",
    "phoneNumber": "0793 365484",
    "latitude": "-1.39607",
    "longitude": "36.7559",
    "time": "8 a.m.-8 p.m."
  },
  {
    "name": "Bethezda Medical Clinic",
    "phoneNumber": "0789 347026",
    "latitude": "0.10409",
    "longitude": "35.18542",
    "time": "7 a.m.-7 p.m."
  },
  {
    "name": "Bethsaida Catholic Dispensary",
    "phoneNumber": "0721 605649",
    "latitude": "-1.16838",
    "longitude": "36.80454",
    "time": "Open 24 hours"
  },
  {
    "name": "Bethsaida Clinic (Kirinyaga-Gathiga)",
    "phoneNumber": "0762 609322",
    "latitude": "-1.217",
    "longitude": "36.741",
    "time": "8 a.m.-8 p.m."
  },
  {
    "name": "Bethsaida Clinic (Kirinyaga-Thiba)",
    "phoneNumber": "0734 255382",
    "latitude": "-0.61046",
    "longitude": "37.3477",
    "time": "Open 24 hours"
  },
  {
    "name": "Bethsaida Grandcure Medical Clinic",
    "phoneNumber": "0713 539308",
    "latitude": "-0.27232",
    "longitude": "37.65471",
    "time": "8 a.m.-8 p.m."
  },
  {
    "name": "Bethsaida Medical Clinic (Gatundu)",
    "phoneNumber": "0746 802883",
    "latitude": "-1.01251",
    "longitude": "36.90515",
    "time": "7 a.m.-7 p.m."
  },
  {
    "name": "Bethsaida Medical Clinic (Kangundo)",
    "phoneNumber": "0777 256421",
    "latitude": "-1.29687",
    "longitude": "37.2802",
    "time": "8 a.m.-8 p.m."
  },
  {
    "name": "Bethwell Clinic",
    "phoneNumber": "0793 734134",
    "latitude": "-0.301786",
    "longitude": "37.4277",
    "time": "7 a.m.-7 p.m."
  },
  {
    "name": "Betta Health Care",
    "phoneNumber": "0794 437369",
    "latitude": "0.22917",
    "longitude": "37.94144",
    "time": "8 a.m.-9 p.m."
  },
  {
    "name": "Better Health Services",
    "phoneNumber": "0724 583441",
    "latitude": "-0.82184",
    "longitude": "36.20376",
    "time": "7 a.m.-8 p.m."
  },
  {
    "name": "Better Medical Clinic",
    "phoneNumber": "0717 552061",
    "latitude": "-0.44635",
    "longitude": "39.63887",
    "time": "8 a.m.-9 p.m."
  },
  {
    "name": "Better off Knowing Stand Alone VCT Centre (Liverpo",
    "phoneNumber": "0722 164886",
    "latitude": "-3.22413",
    "longitude": "40.0883",
    "time": "7 a.m.-7 p.m."
  },
  {
    "name": "Beula's Clinic",
    "phoneNumber": "0728 103471",
    "latitude": "-1.33503",
    "longitude": "36.67335",
    "time": "8 a.m.-9 p.m."
  },
  {
    "name": "Bevans Medical Clinic",
    "phoneNumber": "0732 516602",
    "latitude": "-0.47988",
    "longitude": "37.12576",
    "time": "Open 24 hours"
  },
  {
    "name": "Bewa Medical clinic",
    "phoneNumber": "0753 684379",
    "latitude": "0.73459",
    "longitude": "34.57697",
    "time": "7 a.m.-7 p.m."
  },
  {
    "name": "Beyond the Bridge Vision VCT",
    "phoneNumber": "0772 313536",
    "latitude": "-1.31558",
    "longitude": "36.78842",
    "time": "8 a.m.-9 p.m."
  },
  {
    "name": "Bgp Block 10Ba Base Camp Clinic",
    "phoneNumber": "0753 322145",
    "latitude": "3.32005",
    "longitude": "35.51874",
    "time": "Open 24 hours"
  },
  {
    "name": "Biafra Lions Clinic",
    "phoneNumber": "0732 139598",
    "latitude": "-1.28234",
    "longitude": "36.8485",
    "time": "7 a.m.-7 p.m."
  },
  {
    "name": "Biftu Medical Clinic (Moyale)",
    "phoneNumber": "0762 859911",
    "latitude": "3.5234",
    "longitude": "39.0584",
    "time": "Open 24 hours"
  },
  {
    "name": "Bigem Clinic",
    "phoneNumber": "0761 566391",
    "latitude": "-0.62636",
    "longitude": "37.2557",
    "time": "Open 24 hours"
  },
  {
    "name": "Bigot Medical Clinic",
    "phoneNumber": "0720 603265",
    "latitude": "-0.67489",
    "longitude": "36.4328",
    "time": "7 a.m.-8 p.m."
  },
  {
    "name": "Binyo Medical Clinic",
    "phoneNumber": "0784 852168",
    "latitude": "0.140937",
    "longitude": "36.2427",
    "time": "7 a.m.-8 p.m."
  },
  {
    "name": "Biotisho Ang' Medical Clinic",
    "phoneNumber": "0729 495546",
    "latitude": "1.02566",
    "longitude": "36.58766",
    "time": "Open 24 hours"
  },
  {
    "name": "Birunda (Lyavo Project) Clinic",
    "phoneNumber": "0783 713557",
    "latitude": "0.96075",
    "longitude": "34.93189",
    "time": "8 a.m.-9 p.m."
  },
  {
    "name": "Bismillahi Medical Clinic",
    "phoneNumber": "0783 524708",
    "latitude": "3.93944",
    "longitude": "41.85759",
    "time": "8 a.m.-9 p.m."
  },
  {
    "name": "Bismillahi Medical Clinic (Garissa)",
    "phoneNumber": "0793 794928",
    "latitude": "-0.44958",
    "longitude": "39.64025",
    "time": "7 a.m.-7 p.m."
  },
  {
    "name": "Blessed Medical Clinic",
    "phoneNumber": "0795 637249",
    "latitude": "-1.31551",
    "longitude": "36.79282",
    "time": "7 a.m.-9 p.m."
  },
  {
    "name": "Bliss Health Care Limited",
    "phoneNumber": "0729 488947",
    "latitude": "-1.29369",
    "longitude": "36.82767",
    "time": "8 a.m.-9 p.m."
  },
  {
    "name": "Blissgvs Health Care Pipeline",
    "phoneNumber": "0750 499546",
    "latitude": "-1.32008",
    "longitude": "36.90012",
    "time": "7 a.m.-7 p.m."
  },
  {
    "name": "Blue Cross Medical Clicnic",
    "phoneNumber": "0789 566573",
    "latitude": "-0.4984",
    "longitude": "36.32246",
    "time": "7 a.m.-7 p.m."
  },
  {
    "name": "Blue Haven Medical Clinic",
    "phoneNumber": "0716 368738",
    "latitude": "-1.19714",
    "longitude": "36.92414",
    "time": "7 a.m.-8 p.m."
  },
  {
    "name": "Blue Light Nursing Home",
    "phoneNumber": "0713 883635",
    "latitude": "3.93767",
    "longitude": "41.86112",
    "time": "7 a.m.-8 p.m."
  },
  {
    "name": "Blue Line Clinic",
    "phoneNumber": "0724 233214",
    "latitude": "-0.50566",
    "longitude": "37.28005",
    "time": "7 a.m.-8 p.m."
  },
  {
    "name": "Blue Nile Medical Clinic",
    "phoneNumber": "0740 464724",
    "latitude": "-3.60981",
    "longitude": "39.85414",
    "time": "Open 24 hours"
  },
  {
    "name": "Bluebells Medical Clinic",
    "phoneNumber": "0739 846594",
    "latitude": "-1.3897",
    "longitude": "36.94023",
    "time": "7 a.m.-7 p.m."
  },
  {
    "name": "Blueturtle",
    "phoneNumber": "0748 731874",
    "latitude": "-1.42026",
    "longitude": "38.03823",
    "time": "7 a.m.-8 p.m."
  },
  {
    "name": "Boarder Medical Clinic Namanga",
    "phoneNumber": "0785 360243",
    "latitude": "-2.54595",
    "longitude": "36.78698",
    "time": "7 a.m.-8 p.m."
  },
  {
    "name": "Bodaki Health Centre",
    "phoneNumber": "0751 803345",
    "latitude": "-1.26859",
    "longitude": "36.75583",
    "time": "7 a.m.-7 p.m."
  },
  {
    "name": "Bodaki Medical Clinic",
    "phoneNumber": "0796 452137",
    "latitude": "-1.27617",
    "longitude": "36.7558",
    "time": "7 a.m.-8 p.m."
  },
  {
    "name": "Boddu Pharmacy Ltd",
    "phoneNumber": "0743 633698",
    "latitude": "3.93029",
    "longitude": "41.8686",
    "time": "7 a.m.-9 p.m."
  },
  {
    "name": "Bodo Medical Clinic",
    "phoneNumber": "0796 153807",
    "latitude": "-4.38421",
    "longitude": "39.52437",
    "time": "8 a.m.-9 p.m."
  },
  {
    "name": "Bokoli Base Clinic",
    "phoneNumber": "0751 556308",
    "latitude": "0.71391",
    "longitude": "34.65859",
    "time": "8 a.m.-8 p.m."
  },
  {
    "name": "Boma La Tumaini VCT",
    "phoneNumber": "0763 962782",
    "latitude": "-2.92876",
    "longitude": "37.50805",
    "time": "7 a.m.-7 p.m."
  },
  {
    "name": "Bombolulu Staff Clinic",
    "phoneNumber": "0749 913674",
    "latitude": "-4.02185",
    "longitude": "39.70224",
    "time": "8 a.m.-9 p.m."
  },
  {
    "name": "Bombululu Medical Clinic",
    "phoneNumber": "0798 287880",
    "latitude": "-3.81572",
    "longitude": "39.62915",
    "time": "7 a.m.-7 p.m."
  },
  {
    "name": "Bomet County Beyond Zero Mobile Clinic",
    "phoneNumber": "0755 949231",
    "latitude": "-0.78278",
    "longitude": "35.33863",
    "time": "7 a.m.-9 p.m."
  },
  {
    "name": "Bomet Youth Ffriendly Centre",
    "phoneNumber": "0768 953470",
    "latitude": "-0.78274",
    "longitude": "35.3016",
    "time": "7 a.m.-9 p.m."
  },
  {
    "name": "Bomu Medical Centre (Likoni)",
    "phoneNumber": "0765 114026",
    "latitude": "-4.0936",
    "longitude": "39.64965",
    "time": "7 a.m.-7 p.m."
  },
  {
    "name": "Bona Medical Clinic",
    "phoneNumber": "0738 971245",
    "latitude": "-4.00269",
    "longitude": "39.69856",
    "time": "8 a.m.-8 p.m."
  },
  {
    "name": "Bondeni Maternity",
    "phoneNumber": "0768 875345",
    "latitude": "-0.29575",
    "longitude": "36.07952",
    "time": "Open 24 hours"
  },
  {
    "name": "Bondo Medical Clinic",
    "phoneNumber": "0777 262953",
    "latitude": "-0.0983",
    "longitude": "34.27539",
    "time": "7 a.m.-8 p.m."
  },
  {
    "name": "Bondo Nyironge Medical Clinic",
    "phoneNumber": "0722 857350",
    "latitude": "-1.103",
    "longitude": "34.394",
    "time": "7 a.m.-9 p.m."
  },
  {
    "name": "Bondo University Clinic",
    "phoneNumber": "0720 985331",
    "latitude": "-0.0938",
    "longitude": "34.25786",
    "time": "7 a.m.-7 p.m."
  },
  {
    "name": "Bonzina Medical Clinic",
    "phoneNumber": "0711 750435",
    "latitude": "-1.38778",
    "longitude": "36.7523",
    "time": "8 a.m.-9 p.m."
  },
  {
    "name": "Boore Clinic",
    "phoneNumber": "0759 228020",
    "latitude": "-1.02794",
    "longitude": "37.0685",
    "time": "7 a.m.-8 p.m."
  },
  {
    "name": "Bora Bora Clinic",
    "phoneNumber": "0789 908172",
    "latitude": "-0.73072",
    "longitude": "34.36853",
    "time": "7 a.m.-9 p.m."
  },
  {
    "name": "Bora Imani Medical Clinic",
    "phoneNumber": "0736 634791",
    "latitude": "-2.51278",
    "longitude": "40.54617",
    "time": "Open 24 hours"
  },
  {
    "name": "Borabu Medical Clinic",
    "phoneNumber": "0794 236155",
    "latitude": "-3.96966",
    "longitude": "39.73333",
    "time": "8 a.m.-9 p.m."
  },
  {
    "name": "Borabu Nursing Home",
    "phoneNumber": "0788 179147",
    "latitude": "-0.75647",
    "longitude": "35.0168",
    "time": "Open 24 hours"
  },
  {
    "name": "Border Clinic",
    "phoneNumber": "0768 503253",
    "latitude": "-1.23508",
    "longitude": "34.48347",
    "time": "7 a.m.-9 p.m."
  },
  {
    "name": "Border Medical Care",
    "phoneNumber": "0773 390619",
    "latitude": "-1.84189",
    "longitude": "36.78987",
    "time": "7 a.m.-8 p.m."
  },
  {
    "name": "Boston Medical Clinic",
    "phoneNumber": "0721 389741",
    "latitude": "-0.36338",
    "longitude": "36.34613",
    "time": "7 a.m.-7 p.m."
  },
  {
    "name": "Boya Nursing Home",
    "phoneNumber": "0789 754729",
    "latitude": "-0.16599",
    "longitude": "34.94904",
    "time": "8 a.m.-8 p.m."
  },
  {
    "name": "Brase Clinic and Eye Centre",
    "phoneNumber": "0765 749311",
    "latitude": "-1.10686",
    "longitude": "34.45543",
    "time": "8 a.m.-8 p.m."
  },
  {
    "name": "Bravo Medical Clinic (Marsabit)",
    "phoneNumber": "0746 622308",
    "latitude": "2.33023",
    "longitude": "37.98912",
    "time": "8 a.m.-8 p.m."
  },
  {
    "name": "Breeze Hospital",
    "phoneNumber": "0789 479856",
    "latitude": "-0.93962",
    "longitude": "37.12439",
    "time": "7 a.m.-8 p.m."
  },
  {
    "name": "Bridgeway Clinic",
    "phoneNumber": "0742 295549",
    "latitude": "-1.26738",
    "longitude": "36.749",
    "time": "8 a.m.-8 p.m."
  },
  {
    "name": "Bridging Out-Patient",
    "phoneNumber": "0747 902338",
    "latitude": "-1.1842",
    "longitude": "36.90333",
    "time": "7 a.m.-9 p.m."
  },
  {
    "name": "Bright Clinic",
    "phoneNumber": "0768 746016",
    "latitude": "0.33724",
    "longitude": "37.98751",
    "time": "8 a.m.-8 p.m."
  },
  {
    "name": "British American Tobacco Kenya Clinic",
    "phoneNumber": "0789 834368",
    "latitude": "-1.30535",
    "longitude": "36.85656",
    "time": "7 a.m.-9 p.m."
  },
  {
    "name": "Brooks Health Care Medical Clinic",
    "phoneNumber": "0796 911509",
    "latitude": "-1.19316",
    "longitude": "36.77799",
    "time": "8 a.m.-9 p.m."
  },
  {
    "name": "Brother andre Clinic",
    "phoneNumber": "0780 607938",
    "latitude": "-1.34196",
    "longitude": "36.79921",
    "time": "7 a.m.-7 p.m."
  },
  {
    "name": "Brown's Memorial Medical Centre",
    "phoneNumber": "0722 615153",
    "latitude": "0.99543",
    "longitude": "34.92769",
    "time": "7 a.m.-9 p.m."
  },
  {
    "name": "Buburi Community Clinic",
    "phoneNumber": "0738 641552",
    "latitude": "0.21513",
    "longitude": "34.08831",
    "time": "8 a.m.-8 p.m."
  },
  {
    "name": "Bukaya Medical Centre",
    "phoneNumber": "0711 490315",
    "latitude": "0.255065",
    "longitude": "34.4183",
    "time": "8 a.m.-8 p.m."
  },
  {
    "name": "Bukura Medical Clinic",
    "phoneNumber": "0762 373916",
    "latitude": "0.22285",
    "longitude": "34.61344",
    "time": "7 a.m.-9 p.m."
  },
  {
    "name": "Bulla Game Medical Clinic and Laboratory",
    "phoneNumber": "0722 618957",
    "latitude": "-0.49767",
    "longitude": "39.67074",
    "time": "7 a.m.-8 p.m."
  },
  {
    "name": "Bulla Hagar Clinic",
    "phoneNumber": "0749 879369",
    "latitude": "-0.42667",
    "longitude": "39.66695",
    "time": "8 a.m.-8 p.m."
  },
  {
    "name": "Bulla Medina Clinic",
    "phoneNumber": "0782 213694",
    "latitude": "-0.42791",
    "longitude": "39.64983",
    "time": "8 a.m.-9 p.m."
  },
  {
    "name": "Bulla Mpya Nursing Home",
    "phoneNumber": "0720 995202",
    "latitude": "3.93839",
    "longitude": "41.86454",
    "time": "7 a.m.-7 p.m."
  },
  {
    "name": "Bulla Tawakal Medical Clinic",
    "phoneNumber": "0772 180557",
    "latitude": "3.93859",
    "longitude": "41.86474",
    "time": "8 a.m.-8 p.m."
  },
  {
    "name": "Bullampya Medical Clinic",
    "phoneNumber": "0726 702001",
    "latitude": "3.93431",
    "longitude": "41.84988",
    "time": "Open 24 hours"
  },
  {
    "name": "Bumala CFW clinic",
    "phoneNumber": "0797 670793",
    "latitude": "0.30464",
    "longitude": "34.20157",
    "time": "8 a.m.-8 p.m."
  },
  {
    "name": "Bungoma Medical Centre",
    "phoneNumber": "0786 963578",
    "latitude": "0.56562",
    "longitude": "34.56562",
    "time": "7 a.m.-8 p.m."
  },
  {
    "name": "Bungoma Oasis Healthcare Limited",
    "phoneNumber": "0712 156412",
    "latitude": "0.57006",
    "longitude": "34.55821",
    "time": "Open 24 hours"
  },
  {
    "name": "Bungoma West Medical Services",
    "phoneNumber": "0777 879768",
    "latitude": "0.57584",
    "longitude": "34.5578",
    "time": "8 a.m.-9 p.m."
  },
  {
    "name": "Burnt Forest Medical Clinic",
    "phoneNumber": "0762 107610",
    "latitude": "0.209",
    "longitude": "35.4349",
    "time": "7 a.m.-9 p.m."
  },
  {
    "name": "Burqa Medical Clinic (Moyale)",
    "phoneNumber": "0733 530020",
    "latitude": "3.5215",
    "longitude": "39.0577",
    "time": "7 a.m.-8 p.m."
  },
  {
    "name": "Buruburu Friends Clinic",
    "phoneNumber": "0724 101300",
    "latitude": "-1.31001",
    "longitude": "36.89147",
    "time": "8 a.m.-9 p.m."
  },
  {
    "name": "Buruburu Medical Clinic",
    "phoneNumber": "0764 191310",
    "latitude": "-1.27948",
    "longitude": "36.87783",
    "time": "7 a.m.-8 p.m."
  },
  {
    "name": "Busia Trailer Park Clinic",
    "phoneNumber": "0745 785261",
    "latitude": "0.46404",
    "longitude": "34.10008",
    "time": "8 a.m.-8 p.m."
  },
  {
    "name": "Bute Medical Clinic",
    "phoneNumber": "0738 590684",
    "latitude": "3.36044",
    "longitude": "39.42036",
    "time": "8 a.m.-8 p.m."
  },
  {
    "name": "Buuri Chemist / Laboratory",
    "phoneNumber": "0752 860725",
    "latitude": "0.05775",
    "longitude": "37.64151",
    "time": "7 a.m.-8 p.m."
  },
  {
    "name": "By Faith Clinic (Kirinyaga)",
    "phoneNumber": "0764 413655",
    "latitude": "-0.684",
    "longitude": "37.35608",
    "time": "7 a.m.-7 p.m."
  },
  {
    "name": "By Faith Clinic (Thika)",
    "phoneNumber": "0725 953132",
    "latitude": "-1.137926",
    "longitude": "36.825",
    "time": "7 a.m.-9 p.m."
  },
  {
    "name": "By Faith Medical Centre",
    "phoneNumber": "0767 119670",
    "latitude": "-0.54836",
    "longitude": "37.47797",
    "time": "8 a.m.-8 p.m."
  },
  {
    "name": "By Faith Medical Clinic",
    "phoneNumber": "0778 629022",
    "latitude": "-0.638813",
    "longitude": "37.5417",
    "time": "7 a.m.-9 p.m."
  },
  {
    "name": "By Grace Medical (Kutus) Clinic",
    "phoneNumber": "0790 882098",
    "latitude": "-0.58591",
    "longitude": "37.29073",
    "time": "8 a.m.-8 p.m."
  },
  {
    "name": "By Grace Medical Clinic and Laboratory Services",
    "phoneNumber": "0767 136769",
    "latitude": "-1.26632",
    "longitude": "37.32138",
    "time": "7 a.m.-9 p.m."
  },
  {
    "name": "Bygrace Medical Clinic",
    "phoneNumber": "0769 351652",
    "latitude": "-1.02397",
    "longitude": "36.91276",
    "time": "8 a.m.-9 p.m."
  },
  {
    "name": "California Medical Clinic",
    "phoneNumber": "0771 121590",
    "latitude": "-4.06605",
    "longitude": "39.60321",
    "time": "7 a.m.-8 p.m."
  },
  {
    "name": "Calvary Family Health Care Centre",
    "phoneNumber": "0763 884740",
    "latitude": "-4.00886",
    "longitude": "39.68499",
    "time": "8 a.m.-8 p.m."
  },
  {
    "name": "Calvary Medical Clinic",
    "phoneNumber": "0728 328722",
    "latitude": "-0.28505",
    "longitude": "36.15003",
    "time": "7 a.m.-9 p.m."
  },
  {
    "name": "Camp Brethren Medical Clinic",
    "phoneNumber": "0735 848432",
    "latitude": "-0.563306",
    "longitude": "36.2726",
    "time": "Open 24 hours"
  },
  {
    "name": "Camp David Medical Clinic",
    "phoneNumber": "0741 853209",
    "latitude": "-4.01996",
    "longitude": "39.62078",
    "time": "Open 24 hours"
  },
  {
    "name": "Cana Family Life Clinic",
    "phoneNumber": "0792 958860",
    "latitude": "-1.30907",
    "longitude": "36.88053",
    "time": "8 a.m.-9 p.m."
  },
  {
    "name": "Cana Medical Clinic",
    "phoneNumber": "0774 335774",
    "latitude": "-1.26995",
    "longitude": "37.32861",
    "time": "7 a.m.-7 p.m."
  },
  {
    "name": "Canaan (ACK) Medical Clinic",
    "phoneNumber": "0743 706662",
    "latitude": "-1.00432",
    "longitude": "36.5525",
    "time": "7 a.m.-8 p.m."
  },
  {
    "name": "Canaan Clinic (Matete)",
    "phoneNumber": "0795 756899",
    "latitude": "0.614027",
    "longitude": "34.8669",
    "time": "7 a.m.-7 p.m."
  },
  {
    "name": "Canaan Health Providers (Nairobi)",
    "phoneNumber": "0744 753720",
    "latitude": "-1.27457",
    "longitude": "36.83137",
    "time": "8 a.m.-9 p.m."
  },
  {
    "name": "Canaan Medical Clinic",
    "phoneNumber": "0766 634713",
    "latitude": "-4.00235",
    "longitude": "39.58328",
    "time": "7 a.m.-8 p.m."
  },
  {
    "name": "Canan Medical Clinic",
    "phoneNumber": "0723 732123",
    "latitude": "-1.06743",
    "longitude": "37.0979",
    "time": "8 a.m.-8 p.m."
  },
  {
    "name": "Care Medical Clinic (Geta Bush)",
    "phoneNumber": "0711 568979",
    "latitude": "-0.41361",
    "longitude": "36.58394",
    "time": "7 a.m.-9 p.m."
  },
  {
    "name": "Careplus Medical Services",
    "phoneNumber": "0757 933668",
    "latitude": "-0.058387",
    "longitude": "34.785175",
    "time": "7 a.m.-7 p.m."
  },
  {
    "name": "Caring Cross Medical Centre",
    "phoneNumber": "0733 778116",
    "latitude": "-1.33311",
    "longitude": "36.67648",
    "time": "7 a.m.-7 p.m."
  },
  {
    "name": "Carma Medical Clinic",
    "phoneNumber": "0738 111982",
    "latitude": "0.0101",
    "longitude": "37.803",
    "time": "7 a.m.-9 p.m."
  },
  {
    "name": "Carol Afandi Clinic",
    "phoneNumber": "0732 789468",
    "latitude": "0.114128",
    "longitude": "34.711",
    "time": "Open 24 hours"
  },
  {
    "name": "Carolina For Kibera VCT",
    "phoneNumber": "0787 152126",
    "latitude": "-1.3142",
    "longitude": "36.77879",
    "time": "7 a.m.-7 p.m."
  },
  {
    "name": "Caros Medical Clinic",
    "phoneNumber": "0763 580926",
    "latitude": "-1.24764",
    "longitude": "36.66515",
    "time": "Open 24 hours"
  },
  {
    "name": "Catholic Archdiocese of Mombasa CHBC & AIDS Relief",
    "phoneNumber": "0738 357058",
    "latitude": "-4.01925",
    "longitude": "39.70141",
    "time": "7 a.m.-9 p.m."
  },
  {
    "name": "Catmag Medical Centre",
    "phoneNumber": "0783 171354",
    "latitude": "-1.17504",
    "longitude": "36.7553",
    "time": "7 a.m.-8 p.m."
  },
  {
    "name": "Causqurow Medical Clinic",
    "phoneNumber": "0765 823011",
    "latitude": "-0.47278",
    "longitude": "39.65298",
    "time": "7 a.m.-8 p.m."
  },
  {
    "name": "CCM Kaare",
    "phoneNumber": "0791 153112",
    "latitude": "-0.1843",
    "longitude": "37.79515",
    "time": "7 a.m.-8 p.m."
  },
  {
    "name": "Cdn VCT",
    "phoneNumber": "0733 140940",
    "latitude": "-0.29113",
    "longitude": "36.07229",
    "time": "7 a.m.-8 p.m."
  },
  {
    "name": "Cedar Associate Clinic",
    "phoneNumber": "0798 650596",
    "latitude": "0.51474",
    "longitude": "35.27871",
    "time": "8 a.m.-8 p.m."
  },
  {
    "name": "Cedar Medical Clinic (Kimana)",
    "phoneNumber": "0787 696657",
    "latitude": "-2.79977",
    "longitude": "37.53594",
    "time": "7 a.m.-8 p.m."
  },
  {
    "name": "Central Bank Staff Clinic",
    "phoneNumber": "0725 969225",
    "latitude": "-1.290015",
    "longitude": "36.82274",
    "time": "7 a.m.-9 p.m."
  },
  {
    "name": "Central Clinic (Kisumu East)",
    "phoneNumber": "0748 709671",
    "latitude": "-0.127499",
    "longitude": "34.7252",
    "time": "8 a.m.-8 p.m."
  },
  {
    "name": "Central Clinic (Lugari)",
    "phoneNumber": "0754 266183",
    "latitude": "0.824682",
    "longitude": "35.12118",
    "time": "7 a.m.-9 p.m."
  },
  {
    "name": "Central Medical Clinic",
    "phoneNumber": "0772 950442",
    "latitude": "-1.27259",
    "longitude": "37.33884",
    "time": "7 a.m.-7 p.m."
  },
  {
    "name": "Central Medical Clinic (Kitui Central)",
    "phoneNumber": "0771 825181",
    "latitude": "-1.36747",
    "longitude": "38.0935",
    "time": "8 a.m.-9 p.m."
  },
  {
    "name": "Central Medical Clinic (Nairobi)",
    "phoneNumber": "0753 671516",
    "latitude": "-1.24615",
    "longitude": "36.90296",
    "time": "8 a.m.-9 p.m."
  },
  {
    "name": "Central Medical Clinic and Labaratory (Changamwe)",
    "phoneNumber": "0750 339010",
    "latitude": "-4.03155",
    "longitude": "39.62634",
    "time": "Open 24 hours"
  },
  {
    "name": "Centre medical clinic",
    "phoneNumber": "0780 442441",
    "latitude": "0.29649",
    "longitude": "36.03157",
    "time": "8 a.m.-9 p.m."
  },
  {
    "name": "CFW  Kibumbu",
    "phoneNumber": "0784 631965",
    "latitude": "0.22042",
    "longitude": "37.63497",
    "time": "Open 24 hours"
  },
  {
    "name": "CFW Clinic Ugunja",
    "phoneNumber": "0711 293445",
    "latitude": "0.180813",
    "longitude": "34.295271",
    "time": "7 a.m.-8 p.m."
  },
  {
    "name": "CFW Kiamugumo Glory",
    "phoneNumber": "0782 488059",
    "latitude": "-0.42908",
    "longitude": "37.41226",
    "time": "7 a.m.-7 p.m."
  },
  {
    "name": "CFW Kimangaru Clinic",
    "phoneNumber": "0710 104267",
    "latitude": "-0.54506",
    "longitude": "37.53009",
    "time": "7 a.m.-7 p.m."
  },
  {
    "name": "CFW Mbuvori Clinic",
    "phoneNumber": "0798 544443",
    "latitude": "-0.38943",
    "longitude": "37.46371",
    "time": "8 a.m.-8 p.m."
  },
  {
    "name": "CFW Mwea Clinic",
    "phoneNumber": "0756 640878",
    "latitude": "-0.6854",
    "longitude": "37.35626",
    "time": "8 a.m.-9 p.m."
  },
  {
    "name": "Chaka Health Services Clinic",
    "phoneNumber": "0755 949558",
    "latitude": "-0.36101",
    "longitude": "36.99913",
    "time": "7 a.m.-9 p.m."
  },
  {
    "name": "Chalo Medical Clinic",
    "phoneNumber": "0722 898060",
    "latitude": "-0.4288",
    "longitude": "36.93237",
    "time": "7 a.m.-8 p.m."
  },
  {
    "name": "Chamamo Medical Clinic",
    "phoneNumber": "0763 484830",
    "latitude": "0.11642",
    "longitude": "34.76868",
    "time": "8 a.m.-8 p.m."
  },
  {
    "name": "Changamwe Maternity",
    "phoneNumber": "0760 871042",
    "latitude": "-4.02775",
    "longitude": "39.61286",
    "time": "7 a.m.-9 p.m."
  },
  {
    "name": "Chania Clinic",
    "phoneNumber": "0792 180986",
    "latitude": "-0.001332",
    "longitude": "37.094",
    "time": "8 a.m.-9 p.m."
  },
  {
    "name": "Chania Obstetrics Gyno Clinic",
    "phoneNumber": "0712 852469",
    "latitude": "-1.02794",
    "longitude": "37.0685",
    "time": "8 a.m.-8 p.m."
  },
  {
    "name": "Chania Optical",
    "phoneNumber": "0737 813593",
    "latitude": "-0.42502",
    "longitude": "36.95666",
    "time": "8 a.m.-9 p.m."
  },
  {
    "name": "Charity Medical Clinic",
    "phoneNumber": "0744 240046",
    "latitude": "-0.97443",
    "longitude": "36.93281",
    "time": "Open 24 hours"
  },
  {
    "name": "Chebon Medical Clinic",
    "phoneNumber": "0751 350930",
    "latitude": "0.84112",
    "longitude": "34.71382",
    "time": "7 a.m.-9 p.m."
  },
  {
    "name": "Chebunyo Stand Alone VCT",
    "phoneNumber": "0799 933872",
    "latitude": "-0.96389",
    "longitude": "35.19167",
    "time": "7 a.m.-8 p.m."
  },
  {
    "name": "Checkpoint Medical Clinic",
    "phoneNumber": "0756 238292",
    "latitude": "-1.1435",
    "longitude": "36.9689",
    "time": "7 a.m.-9 p.m."
  },
  {
    "name": "Chemasis Maternity Home",
    "phoneNumber": "0722 678056",
    "latitude": "0.00135",
    "longitude": "36.23152",
    "time": "7 a.m.-8 p.m."
  },
  {
    "name": "Chemat For Health Solutions Kamweti",
    "phoneNumber": "0766 618186",
    "latitude": "-0.42978",
    "longitude": "37.3088",
    "time": "7 a.m.-9 p.m."
  },
  {
    "name": "Chemichemi Medical Clinic",
    "phoneNumber": "0767 358531",
    "latitude": "-3.13593",
    "longitude": "40.0175",
    "time": "7 a.m.-9 p.m."
  },
  {
    "name": "Chemichemi Medical Clinic (Nyandarua)",
    "phoneNumber": "0760 632761",
    "latitude": "-0.47165",
    "longitude": "36.50896",
    "time": "Open 24 hours"
  },
  {
    "name": "Chemin Clinic",
    "phoneNumber": "0772 433894",
    "latitude": "-0.87103",
    "longitude": "34.98993",
    "time": "7 a.m.-8 p.m."
  },
  {
    "name": "Chepkono Medical Clinic",
    "phoneNumber": "0793 827318",
    "latitude": "1.25067",
    "longitude": "35.23974",
    "time": "7 a.m.-8 p.m."
  },
  {
    "name": "Chepkunan Clinic",
    "phoneNumber": "0747 325754",
    "latitude": "-0.00881",
    "longitude": "34.9473",
    "time": "7 a.m.-7 p.m."
  },
  {
    "name": "Chepnoet Clinic",
    "phoneNumber": "0743 539789",
    "latitude": "0.47328",
    "longitude": "35.06641",
    "time": "8 a.m.-9 p.m."
  },
  {
    "name": "Chepnoet Private Clinic",
    "phoneNumber": "0761 176731",
    "latitude": "0.47063",
    "longitude": "35.06551",
    "time": "7 a.m.-9 p.m."
  },
  {
    "name": "Chepseon Health Care Clinic",
    "phoneNumber": "0730 346352",
    "latitude": "-0.25646",
    "longitude": "35.47804",
    "time": "7 a.m.-9 p.m."
  },
  {
    "name": "Chepseon Medical Clinic",
    "phoneNumber": "0721 555078",
    "latitude": "-0.25438",
    "longitude": "35.47963",
    "time": "8 a.m.-9 p.m."
  },
  {
    "name": "Chepseon-VCT Site",
    "phoneNumber": "0738 824874",
    "latitude": "-0.2561",
    "longitude": "35.47834",
    "time": "8 a.m.-8 p.m."
  },
  {
    "name": "Cheptais Clinic",
    "phoneNumber": "0738 652885",
    "latitude": "0.8073",
    "longitude": "34.46274",
    "time": "7 a.m.-8 p.m."
  },
  {
    "name": "Cheptarit Med Clinic",
    "phoneNumber": "0731 409403",
    "latitude": "0.31844",
    "longitude": "35.16954",
    "time": "7 a.m.-8 p.m."
  },
  {
    "name": "Cherangany Nursing Home Outpatient Clinic",
    "phoneNumber": "0738 875359",
    "latitude": "1.01515",
    "longitude": "35.00364",
    "time": "8 a.m.-9 p.m."
  },
  {
    "name": "Chesinende Health Services",
    "phoneNumber": "0729 754511",
    "latitude": "0.25707",
    "longitude": "35.478",
    "time": "8 a.m.-8 p.m."
  },
  {
    "name": "Chesogor Medical Clinic/Chemist",
    "phoneNumber": "0748 521171",
    "latitude": "0.31809",
    "longitude": "35.16658",
    "time": "8 a.m.-9 p.m."
  },
  {
    "name": "Chesoi Medical Clinic",
    "phoneNumber": "0797 420273",
    "latitude": "1.06278",
    "longitude": "35.59206",
    "time": "8 a.m.-8 p.m."
  },
  {
    "name": "Child & Family Wellness Clinic",
    "phoneNumber": "0788 522885",
    "latitude": "-1.17535",
    "longitude": "36.8304",
    "time": "7 a.m.-7 p.m."
  },
  {
    "name": "Child Welfare Society of Kenya Medical Clinic",
    "phoneNumber": "0724 166770",
    "latitude": "0.59441",
    "longitude": "34.55301",
    "time": "7 a.m.-7 p.m."
  },
  {
    "name": "Children's Support Centre Emurembe",
    "phoneNumber": "0775 633225",
    "latitude": "0.10508",
    "longitude": "34.67416",
    "time": "8 a.m.-9 p.m."
  },
  {
    "name": "Chimbiriro Clinic",
    "phoneNumber": "0726 802593",
    "latitude": "-2.86519",
    "longitude": "40.08803",
    "time": "8 a.m.-9 p.m."
  },
  {
    "name": "Chiromo Medical Centre",
    "phoneNumber": "0753 669105",
    "latitude": "-1.26917",
    "longitude": "36.80981",
    "time": "8 a.m.-8 p.m."
  },
  {
    "name": "Chitugul Medical Clinic",
    "phoneNumber": "0749 269281",
    "latitude": "0.98771",
    "longitude": "35.1247",
    "time": "7 a.m.-7 p.m."
  },
  {
    "name": "Chizi Medical Clinic",
    "phoneNumber": "0712 944963",
    "latitude": "-3.74677",
    "longitude": "39.68632",
    "time": "7 a.m.-8 p.m."
  },
  {
    "name": "Choice Health Care",
    "phoneNumber": "0719 234308",
    "latitude": "-0.44489",
    "longitude": "39.64873",
    "time": "8 a.m.-9 p.m."
  },
  {
    "name": "Chomei Medical Clinic",
    "phoneNumber": "0751 485289",
    "latitude": "0.39294",
    "longitude": "35.3291",
    "time": "8 a.m.-8 p.m."
  },
  {
    "name": "Chriska M edical Clinic",
    "phoneNumber": "0738 455478",
    "latitude": "0.96778",
    "longitude": "35.05188",
    "time": "7 a.m.-7 p.m."
  },
  {
    "name": "Christ Mary Anne Clinic",
    "phoneNumber": "0751 632216",
    "latitude": "-0.79089",
    "longitude": "34.70567",
    "time": "Open 24 hours"
  },
  {
    "name": "Christamarianne Medical Clinic (Suneka)",
    "phoneNumber": "0796 840782",
    "latitude": "-0.6788",
    "longitude": "34.7059",
    "time": "7 a.m.-8 p.m."
  },
  {
    "name": "Christian Partners Development Agency VCT",
    "phoneNumber": "0744 451710",
    "latitude": "0.12105",
    "longitude": "34.73582",
    "time": "7 a.m.-8 p.m."
  },
  {
    "name": "Chumani Medical Clinic",
    "phoneNumber": "0760 237300",
    "latitude": "-3.47405",
    "longitude": "39.8989",
    "time": "7 a.m.-8 p.m."
  },
  {
    "name": "Church Army Medical Clinic",
    "phoneNumber": "0733 251245",
    "latitude": "-1.2946",
    "longitude": "36.85477",
    "time": "8 a.m.-8 p.m."
  },
  {
    "name": "Chyulu Medicare services",
    "phoneNumber": "0792 565603",
    "latitude": "-2.69148",
    "longitude": "38.16721",
    "time": "8 a.m.-9 p.m."
  },
  {
    "name": "Ciama Medical Clinic",
    "phoneNumber": "0740 158937",
    "latitude": "-0.0639",
    "longitude": "37.66358",
    "time": "7 a.m.-8 p.m."
  },
  {
    "name": "Cidi Mukuru Clinic",
    "phoneNumber": "0738 703717",
    "latitude": "-1.31503",
    "longitude": "36.89093",
    "time": "7 a.m.-8 p.m."
  },
  {
    "name": "City Point Medical Clinic",
    "phoneNumber": "0766 218499",
    "latitude": "-1.27908",
    "longitude": "36.85034",
    "time": "7 a.m.-8 p.m."
  },
  {
    "name": "Clinitec Medical Services",
    "phoneNumber": "0750 433845",
    "latitude": "-1.295947",
    "longitude": "36.803218",
    "time": "Open 24 hours"
  },
  {
    "name": "Clinix Health Care",
    "phoneNumber": "0793 156822",
    "latitude": "-1.30688",
    "longitude": "36.82578",
    "time": "7 a.m.-9 p.m."
  },
  {
    "name": "Clinix Health Care (Kibra)",
    "phoneNumber": "0790 170738",
    "latitude": "-1.31037",
    "longitude": "36.77395",
    "time": "7 a.m.-9 p.m."
  },
  {
    "name": "Clinix Health Care Limited (Meru)",
    "phoneNumber": "0737 898046",
    "latitude": "0.04645",
    "longitude": "37.6574",
    "time": "7 a.m.-8 p.m."
  },
  {
    "name": "Clinix Medical Clinic (Machakos)",
    "phoneNumber": "0734 754648",
    "latitude": "-1.51871",
    "longitude": "37.26826",
    "time": "8 a.m.-8 p.m."
  },
  {
    "name": "Comboni Missionary Sisters Health Programm",
    "phoneNumber": "0735 134869",
    "latitude": "-1.25854",
    "longitude": "36.87917",
    "time": "7 a.m.-7 p.m."
  },
  {
    "name": "Comet Medical Clinic",
    "phoneNumber": "0782 762157",
    "latitude": "-1.08498",
    "longitude": "37.32535",
    "time": "7 a.m.-9 p.m."
  },
  {
    "name": "Comfort The Chidren International (Ctc) Naivasha",
    "phoneNumber": "0789 336403",
    "latitude": "-0.97945",
    "longitude": "36.58256",
    "time": "8 a.m.-8 p.m."
  },
  {
    "name": "Community Action for Rural Developement  VCT",
    "phoneNumber": "0768 454279",
    "latitude": "-0.73243",
    "longitude": "34.36419",
    "time": "Open 24 hours"
  },
  {
    "name": "Community Diagnostic Medical Centre",
    "phoneNumber": "0737 786192",
    "latitude": "-1.47691",
    "longitude": "36.95689",
    "time": "Open 24 hours"
  },
  {
    "name": "Community Evolution Network VCT",
    "phoneNumber": "0772 647883",
    "latitude": "-1.31351",
    "longitude": "36.78946",
    "time": "Open 24 hours"
  },
  {
    "name": "Community Medical and Lab Services Clinic",
    "phoneNumber": "0768 908270",
    "latitude": "1.0961",
    "longitude": "36.70168",
    "time": "Open 24 hours"
  },
  {
    "name": "Community Medical Centre (Kongowea)",
    "phoneNumber": "0768 870119",
    "latitude": "-4.04246",
    "longitude": "39.68632",
    "time": "8 a.m.-9 p.m."
  },
  {
    "name": "Complete Care Health Services",
    "phoneNumber": "0763 889210",
    "latitude": "-1.24536",
    "longitude": "36.6628",
    "time": "8 a.m.-9 p.m."
  },
  {
    "name": "Complex Medical Centre",
    "phoneNumber": "0719 267573",
    "latitude": "-0.74956",
    "longitude": "37.39569",
    "time": "8 a.m.-8 p.m."
  },
  {
    "name": "Comrade Nurising Home",
    "phoneNumber": "0761 881604",
    "latitude": "-0.6844",
    "longitude": "37.3544",
    "time": "7 a.m.-7 p.m."
  },
  {
    "name": "Conerstone Clinic",
    "phoneNumber": "0798 557578",
    "latitude": "-1.24816",
    "longitude": "36.91893",
    "time": "7 a.m.-8 p.m."
  },
  {
    "name": "Congo medical services",
    "phoneNumber": "0732 641836",
    "latitude": "-1.18613",
    "longitude": "36.90665",
    "time": "8 a.m.-8 p.m."
  },
  {
    "name": "Connections Medical Clinic",
    "phoneNumber": "0771 783598",
    "latitude": "-1.32007",
    "longitude": "36.90011",
    "time": "Open 24 hours"
  },
  {
    "name": "Consolata Medical Clinic (Eldoret South)",
    "phoneNumber": "0757 570853",
    "latitude": "0.492988",
    "longitude": "35.2663",
    "time": "7 a.m.-9 p.m."
  },
  {
    "name": "Copeman Health Care Centre",
    "phoneNumber": "0758 895129",
    "latitude": "-0.632",
    "longitude": "35.6702",
    "time": "Open 24 hours"
  },
  {
    "name": "Coping Centre",
    "phoneNumber": "0711 591536",
    "latitude": "-0.30248",
    "longitude": "36.06426",
    "time": "8 a.m.-9 p.m."
  },
  {
    "name": "Coptic Medical Clinic",
    "phoneNumber": "0783 484845",
    "latitude": "-1.30837",
    "longitude": "36.86298",
    "time": "7 a.m.-7 p.m."
  },
  {
    "name": "Coptic Nursing Home",
    "phoneNumber": "0724 339231",
    "latitude": "0.01081",
    "longitude": "34.60541",
    "time": "7 a.m.-8 p.m."
  },
  {
    "name": "Corner Chaani Medical Clinic",
    "phoneNumber": "0777 962480",
    "latitude": "-4.02842",
    "longitude": "39.62609",
    "time": "8 a.m.-9 p.m."
  },
  {
    "name": "Corner Clinic",
    "phoneNumber": "0730 507333",
    "latitude": "-3.39118",
    "longitude": "38.56269",
    "time": "Open 24 hours"
  },
  {
    "name": "Corner Hse Med Laboratory",
    "phoneNumber": "0767 247657",
    "latitude": "-1.28503",
    "longitude": "36.82424",
    "time": "7 a.m.-8 p.m."
  },
  {
    "name": "Corner Medical Clinic",
    "phoneNumber": "0788 484179",
    "latitude": "-4.00134",
    "longitude": "39.6853",
    "time": "8 a.m.-9 p.m."
  },
  {
    "name": "Corner Stone",
    "phoneNumber": "0747 475110",
    "latitude": "-1.20244",
    "longitude": "36.9038",
    "time": "7 a.m.-7 p.m."
  },
  {
    "name": "Cornerstone Medical Clinic",
    "phoneNumber": "0793 519344",
    "latitude": "-4.17441",
    "longitude": "39.45421",
    "time": "8 a.m.-8 p.m."
  },
  {
    "name": "Cornerstone Medical Clinic (Nyeri Central)",
    "phoneNumber": "0790 216746",
    "latitude": "-0.42515",
    "longitude": "36.95453",
    "time": "8 a.m.-8 p.m."
  },
  {
    "name": "Cornestone Baptist Clinic",
    "phoneNumber": "0790 494580",
    "latitude": "0.30425",
    "longitude": "34.10295",
    "time": "7 a.m.-7 p.m."
  },
  {
    "name": "County Gate Medical Clinic",
    "phoneNumber": "0717 556116",
    "latitude": "-1.14558",
    "longitude": "37.54875",
    "time": "7 a.m.-9 p.m."
  },
  {
    "name": "County Medical Centre - Embu Ltd",
    "phoneNumber": "0749 769476",
    "latitude": "-0.54698",
    "longitude": "37.45436",
    "time": "Open 24 hours"
  },
  {
    "name": "County Medical Clinic (Kangai)",
    "phoneNumber": "0729 949336",
    "latitude": "-0.62383",
    "longitude": "37.29841",
    "time": "8 a.m.-8 p.m."
  },
  {
    "name": "County Medical Clinic and Lab Services",
    "phoneNumber": "0735 196760",
    "latitude": "-0.47611",
    "longitude": "39.65827",
    "time": "8 a.m.-8 p.m."
  },
  {
    "name": "County Medical Clinic and Lab Sevices",
    "phoneNumber": "0749 267851",
    "latitude": "1.75468",
    "longitude": "40.06154",
    "time": "Open 24 hours"
  },
  {
    "name": "County Medical Health Clinic (Wanguru)",
    "phoneNumber": "0769 212403",
    "latitude": "-0.68278",
    "longitude": "37.35489",
    "time": "7 a.m.-7 p.m."
  },
  {
    "name": "Couple Counselling Centre",
    "phoneNumber": "0739 206047",
    "latitude": "-1.22141",
    "longitude": "36.8941",
    "time": "7 a.m.-8 p.m."
  },
  {
    "name": "Courtesy Community Based Health Services",
    "phoneNumber": "0763 865778",
    "latitude": "-1.36434",
    "longitude": "36.9351",
    "time": "8 a.m.-8 p.m."
  },
  {
    "name": "Cradle Clinic",
    "phoneNumber": "0747 283302",
    "latitude": "-1.25553",
    "longitude": "36.69402",
    "time": "8 a.m.-8 p.m."
  },
  {
    "name": "Crater Medical Centre",
    "phoneNumber": "0765 433718",
    "latitude": "-0.28449",
    "longitude": "36.09737",
    "time": "7 a.m.-8 p.m."
  },
  {
    "name": "Creadis Htc Centre",
    "phoneNumber": "0777 569028",
    "latitude": "0.59965",
    "longitude": "34.54853",
    "time": "7 a.m.-8 p.m."
  },
  {
    "name": "Creative Medical Services",
    "phoneNumber": "0768 262216",
    "latitude": "-1.17317",
    "longitude": "36.83156",
    "time": "8 a.m.-8 p.m."
  },
  {
    "name": "Credible Health Centre",
    "phoneNumber": "0738 762884",
    "latitude": "-1.29626",
    "longitude": "36.8766",
    "time": "8 a.m.-9 p.m."
  },
  {
    "name": "Crescent Medical Aid (Pangani)",
    "phoneNumber": "0717 900023",
    "latitude": "-1.26636",
    "longitude": "36.83801",
    "time": "8 a.m.-9 p.m."
  },
  {
    "name": "Crescent Medical Aid Kenya Korogocho Clinic",
    "phoneNumber": "0762 256488",
    "latitude": "-1.25176",
    "longitude": "36.89099",
    "time": "8 a.m.-8 p.m."
  },
  {
    "name": "Crescent Medical Aid Murang'a Road",
    "phoneNumber": "0792 863603",
    "latitude": "-1.2852",
    "longitude": "36.821",
    "time": "8 a.m.-8 p.m."
  },
  {
    "name": "Crescent-Davina Med Clinic",
    "phoneNumber": "0775 936215",
    "latitude": "1.01386",
    "longitude": "35.00336",
    "time": "7 a.m.-8 p.m."
  },